{
  "nationalAvg": {
    "unleaded": 142.5,
    "diesel": 161.2
  },
  "lastUpdated": "2026-03-12T10:00:28.280462+00:00",
  "stationCount": 5,
  "stations": [
    {
      "name": "SAINSBURYS PENSBY ROAD THINGWALL",
      "brand": "SAINSBURY'S",
      "address": "PENSBY ROAD, WIRRAL, CH61 7UB",
      "lat": 53.35295,
      "lng": -3.09298,
      "distance": 10.3,
      "is_supermarket": false,
      "is_motorway": false,
      "unleaded": 136.9,
      "diesel": 155.9,
      "updated": "2026-03-11T22:55:23.752Z",
      "id": 1
    },
    {
      "name": "MFG MORRISONS WEST KIRBY",
      "brand": "MORRISONS",
      "address": "ORRYSDALE ROAD, WEST KIRBY, CH48 4HX",
      "lat": 53.374111,
      "lng": -3.181775,
      "distance": 13.0,
      "is_supermarket": false,
      "is_motorway": false,
      "unleaded": 136.9,
      "diesel": 153.9,
      "updated": "2026-03-12T08:57:31.591Z",
      "id": 2
    },
    {
      "name": "H W Oultram & Co",
      "brand": "OIL 4 WALES",
      "address": "H W OULTRAM & CO, NEWBRIDGE FARM & FILLING STATION, HOLYWELL ROAD, EWLOE, DEESIDE, CH5 3BS, DEESIDE, CH5 3BS",
      "lat": 53.1959232,
      "lng": -3.0636485,
      "distance": 1.6,
      "is_supermarket": false,
      "is_motorway": false,
      "unleaded": 139.9,
      "diesel": 158.9,
      "updated": "2026-03-09T16:10:51.177Z",
      "id": 4
    },
    {
      "name": "SHELL CO-OP WREXHAM",
      "brand": "SHELL",
      "address": "MOLD ROAD, WREXHAM, LL11 2AF",
      "lat": 53.051908,
      "lng": -3.006356,
      "distance": 10.9,
      "is_supermarket": false,
      "is_motorway": false,
      "unleaded": 142.9,
      "diesel": 156.9,
      "updated": "2026-03-11T17:56:03.024Z",
      "id": 5
    },
    {
      "name": "PGG EGREMONT",
      "brand": "VALERO EGREMONT",
      "address": "109 KING STREET, WALLASEY, CH44 0BZ",
      "lat": 53.42099,
      "lng": -3.02968,
      "distance": 14.7,
      "is_supermarket": false,
      "is_motorway": false,
      "unleaded": 143.9,
      "diesel": 173.9,
      "updated": "2026-03-12T09:34:26.862Z",
      "id": 3
    }
  ]
}