{
  "nationalAvg": {
    "unleaded": 141.1,
    "diesel": 160.5
  },
  "lastUpdated": "2026-03-13T03:30:16.839202+00:00",
  "stationCount": 53,
  "stations": [
    {
      "id": "a6dbf2da92dde055916327b41b3f26aad835a2a04e148e6fb99734b28c8d430a",
      "name": "H W Oultram & Co",
      "brand": "Oil 4 Wales",
      "address": "",
      "postcode": "CH5 3BS",
      "lat": 53.1959232,
      "lng": -3.0636485,
      "unleaded": 139.9,
      "diesel": 158.9,
      "updated": "2026-03-09T16:10:51.177Z",
      "cached": false,
      "distance": 1.7
    },
    {
      "id": "da6980253782e98a1802436a37575a9e561fd32600e3cc3f3acf2f57ae0d2947",
      "name": "SHELL CO-OP WREXHAM",
      "brand": "SHELL",
      "address": "",
      "postcode": "LL11 2AF",
      "lat": 53.051908,
      "lng": -3.006356,
      "unleaded": 144.9,
      "diesel": 159.9,
      "updated": "2026-03-12T17:24:06.402Z",
      "cached": false,
      "distance": 10.6
    },
    {
      "id": "80bd1d38796954915e9f3aa3bf7a952a751811c21df4ea42913cd79a33a745a7",
      "name": "ASCONA HOLYWELL SERVICE STATION",
      "brand": "VALERO",
      "address": "",
      "postcode": "CH8 7LQ",
      "lat": 53.279441,
      "lng": -3.2410974,
      "unleaded": 144.0,
      "diesel": 160.0,
      "updated": "2026-03-12T11:42:33.760Z",
      "cached": false,
      "distance": 10.3
    },
    {
      "id": "bc85c084bd3335a4aee66e23b59536645aaf26731487b90532b1d380ee66cd01",
      "name": "BP HARVEST ENERGY OVERPOOL",
      "brand": "BP HARVEST ENERGY",
      "address": "",
      "postcode": "CH66 2JF",
      "lat": 53.2714848,
      "lng": -2.9206747,
      "unleaded": 139.9,
      "diesel": 169.9,
      "updated": "2026-03-10T10:55:49.720Z",
      "cached": false,
      "distance": 6.3
    },
    {
      "id": "47e0252a9b4c1be4b3e3271c670d12e9e3c8e32066a0daa86c84953cdccd55ae",
      "name": "JACOBS WELL SERVICE STATION",
      "brand": "JET",
      "address": "",
      "postcode": "WF1 3NS",
      "lat": 53.2922431,
      "lng": -2.9523846,
      "unleaded": 139.9,
      "diesel": 159.9,
      "updated": "2026-03-09T11:58:20.700Z",
      "cached": false,
      "distance": 6.8
    },
    {
      "id": "d8e546ff352fd5c4cca2b52e6b8966b09ca957160e840df011681a4e5e0bdd52",
      "name": "MFG MORRISONS CHESTER LIVERPOOL ROAD",
      "brand": "MORRISONS",
      "address": "",
      "postcode": "CH2 1AU",
      "lat": 53.209038,
      "lng": -2.894566,
      "unleaded": 136.9,
      "diesel": 155.9,
      "updated": "2026-03-12T23:58:29.376Z",
      "cached": false,
      "distance": 5.5
    },
    {
      "id": "de32ba52985fb55b747be8c6230cdd2431c418562767b43e7cb72239e1402d58",
      "name": "SAINSBURYS ELLESMERE PORT",
      "brand": "SAINSBURY'S",
      "address": "",
      "postcode": "CH65 9HN",
      "lat": 53.26233,
      "lng": -2.88042,
      "unleaded": 137.9,
      "diesel": 155.9,
      "updated": "2026-03-11T21:50:27.778Z",
      "cached": false,
      "distance": 7.2
    },
    {
      "id": "b43bafc5ee7cfc90898824b4c696d576d77bba29b5c65954eef598faf7e6bc40",
      "name": "BR Gwersyllt",
      "brand": "Spar",
      "address": "",
      "postcode": "LL11 4AH",
      "lat": 53.0792616,
      "lng": -3.021987,
      "unleaded": 141.9,
      "diesel": 155.9,
      "updated": "2026-03-11T11:57:10.016Z",
      "cached": false,
      "distance": 8.7
    },
    {
      "id": "304d35b34c53fd20be90ba355808429f3e72b55a6154712b70065fdebfaa3e4d",
      "name": "INCH FILLING STATION",
      "brand": "ESSO",
      "address": "",
      "postcode": "DG9 8RY",
      "lat": 53.0845618,
      "lng": -2.9738553,
      "unleaded": 142.9,
      "diesel": 162.9,
      "updated": "2026-03-12T11:10:04.372Z",
      "cached": false,
      "distance": 8.6
    },
    {
      "id": "857de1a36363a878332716ab06ca5f861e17ac64ff0e6baa537c9938bc4b6ada",
      "name": "MFG MORRISONS SALTNEY",
      "brand": "MORRISONS",
      "address": "",
      "postcode": "CH4 8RU",
      "lat": 53.178287,
      "lng": -2.935342,
      "unleaded": 135.9,
      "diesel": 155.9,
      "updated": "2026-03-12T13:15:31.422Z",
      "cached": false,
      "distance": 4.2
    },
    {
      "id": "cee3a494db1a07597382f2abfc04b56ab750631ce8157b11732e2b6515ef26cb",
      "name": "SHELL NORTHOP",
      "brand": "SHELL",
      "address": "",
      "postcode": "CH7 6HB",
      "lat": 53.192913,
      "lng": -3.081794,
      "unleaded": 151.9,
      "diesel": 174.9,
      "updated": "2026-03-12T17:24:24.923Z",
      "cached": false,
      "distance": 2.4
    },
    {
      "id": "6baa912820f943b0a2d9ca6c1d18f86dab4f5078997a790a72c9189e083a0190",
      "name": "SHELL NORTHOP HALL",
      "brand": "SHELL",
      "address": "",
      "postcode": "CH7 6HF",
      "lat": 53.197289,
      "lng": -3.088915,
      "unleaded": 151.9,
      "diesel": 174.9,
      "updated": "2026-03-12T17:37:49.523Z",
      "cached": false,
      "distance": 2.6
    },
    {
      "id": "b11aa0c09561cf900ecf06e7473dbdfcb9dd10010083cc22ac49dcd316dde32f",
      "name": "MFG STRAWBERRY",
      "brand": "BP",
      "address": "",
      "postcode": "CH66 2PY",
      "lat": 53.256833,
      "lng": -2.909397,
      "unleaded": 139.9,
      "diesel": 165.9,
      "updated": "2026-03-12T13:08:58.795Z",
      "cached": false,
      "distance": 6.0
    },
    {
      "id": "d8beadcbbd2f158a16ade792bc11d58ced957e251be41af823fc8ea15ca76315",
      "name": "Plas Acton Fuel Station",
      "brand": "Gulf",
      "address": "",
      "postcode": "LL12 8DU",
      "lat": 53.0701313,
      "lng": -2.9897412,
      "unleaded": 139.9,
      "diesel": 159.9,
      "updated": "2026-03-09T13:58:25.292Z",
      "cached": false,
      "distance": 9.4
    },
    {
      "id": "a0e6dedb05ccc0c5fa573420d9750cb938fb9a5268cf09e42c5dfcbe574b3fd1",
      "name": "ASDA COEDPOETH EXPRESS PETROL",
      "brand": "ASDA EXPRESS",
      "address": "",
      "postcode": "LL11 3UF",
      "lat": 53.0553979,
      "lng": -3.0743781,
      "unleaded": 143.9,
      "diesel": 159.9,
      "updated": "2026-03-11T17:51:05.291Z",
      "cached": false,
      "distance": 10.5
    },
    {
      "id": "fa4b2e235c6e064cc5780a532e89770ec5fce630d01d036ac2af171dce17d9f4",
      "name": "ASDA HOLT ROAD EXPRESS PETROL",
      "brand": "ESSO",
      "address": "",
      "postcode": "LL13 9SB",
      "lat": 53.061185,
      "lng": -2.953648,
      "unleaded": 142.9,
      "diesel": 171.9,
      "updated": "2026-03-12T17:24:00.813Z",
      "cached": false,
      "distance": 10.4
    },
    {
      "id": "fbb879ff35abc78a1a33e659469aa814ff23b41fc67d664d99344e298630f26b",
      "name": "Dyffryn Service Station",
      "brand": "Esso",
      "address": "",
      "postcode": "LL15 1PE",
      "lat": 53.1167433,
      "lng": -3.3249443,
      "unleaded": 156.9,
      "diesel": 159.9,
      "updated": "2026-03-10T07:31:29.762Z",
      "cached": false,
      "distance": 13.8
    },
    {
      "id": "d942cacce981454b56188d19f52f71ac5da48bca49080951901c825661122412",
      "name": "ASDA SINGING KETTLE S/STN EXPRESS PETROL",
      "brand": "BP",
      "address": "",
      "postcode": "CH8 8RD",
      "lat": 53.274981,
      "lng": -3.292738,
      "unleaded": 152.9,
      "diesel": 171.9,
      "updated": "2026-03-11T13:56:46.514Z",
      "cached": false,
      "distance": 12.0
    },
    {
      "id": "eddb870e5e823f993ff5c961ca8aed2da3089ba356cec9d5b611fba575d101a1",
      "name": "ASDA TREFFYNNON EXPRESS PETROL",
      "brand": "ESSO",
      "address": "",
      "postcode": "CH8 7SG",
      "lat": 53.267,
      "lng": -3.216,
      "unleaded": 143.9,
      "diesel": 161.9,
      "updated": "2026-03-12T17:55:33.848Z",
      "cached": false,
      "distance": 8.9
    },
    {
      "id": "9a6b63c48b364f8ce3ee90cfcff54b44e62979044dabb71e7a57a0adcbc0b011",
      "name": "ASDA WYLFA EXPRESS PETROL",
      "brand": "ESSO",
      "address": "",
      "postcode": "CH7 1UE",
      "lat": 53.166963,
      "lng": -3.133838,
      "unleaded": 141.9,
      "diesel": 159.9,
      "updated": "2026-03-12T20:56:10.900Z",
      "cached": false,
      "distance": 5.2
    },
    {
      "id": "a60195ec2d7b00cf2bd611e0f65a0afdc06b80fc9ac9123b90e75a8775289ffc",
      "name": "EG MOLD PFS",
      "brand": "EG ON THE MOVE",
      "address": "",
      "postcode": "CH7 1LB",
      "lat": 53.170418,
      "lng": -3.138778,
      "unleaded": null,
      "diesel": null,
      "updated": null,
      "cached": false,
      "distance": 5.2
    },
    {
      "id": "70cc3725ae353608db4a7d090358ce58c9481cb3ee40635f01e2ae0b207e968f",
      "name": "EG PONTBLYDDYN PFS",
      "brand": "EG ON THE MOVE",
      "address": "",
      "postcode": "CH7 4HL",
      "lat": 53.137161,
      "lng": -3.083567,
      "unleaded": 142.7,
      "diesel": 161.7,
      "updated": "2026-03-11T16:28:24.724Z",
      "cached": false,
      "distance": 5.2
    },
    {
      "id": "543aab15a1da23f2dd0e087ba2bfbd0bebb070ab5d3bb8ede6bd9b38c52d5b56",
      "name": "Dobshill Service Station",
      "brand": "Dobshill Service Station",
      "address": "",
      "postcode": "CH5 3LZ",
      "lat": 53.1636207,
      "lng": -3.039481,
      "unleaded": 145.9,
      "diesel": 161.9,
      "updated": "2026-03-11T14:48:42.239Z",
      "cached": false,
      "distance": 2.9
    },
    {
      "id": "ba93319864538614ccd03c9559c1c99e11729dd4a35855dfde3fdf5b0a2054d5",
      "name": "ASDA QUEENSFERRY",
      "brand": "ASDA",
      "address": "",
      "postcode": "CH5 1TP",
      "lat": 53.2049518,
      "lng": -3.0265271,
      "unleaded": 137.9,
      "diesel": 157.9,
      "updated": "2026-03-12T16:48:45.007Z",
      "cached": false,
      "distance": 0.0
    },
    {
      "id": "cc0824567b8c0c5dc6fbd3fdd8fdcffe43f1cc9f59ca19fd70c206fa84d21d14",
      "name": "ASDA QUAY EXPRESS PETROL",
      "brand": "ESSO",
      "address": "",
      "postcode": "CH5 4AS",
      "lat": 53.22449,
      "lng": -3.071442,
      "unleaded": 141.9,
      "diesel": 158.9,
      "updated": "2026-03-11T14:14:59.640Z",
      "cached": false,
      "distance": 2.3
    },
    {
      "id": "efbf3cb7c6e2d05dc727315e4dd255670503b8193ce6c58a99a4e7f247e5fcd5",
      "name": "ASDA DEESIDE EXPRESS PETROL",
      "brand": "BP",
      "address": "",
      "postcode": "CH5 2NS",
      "lat": 53.232092,
      "lng": -3.006867,
      "unleaded": 142.9,
      "diesel": 171.9,
      "updated": "2026-03-11T14:08:19.835Z",
      "cached": false,
      "distance": 2.0
    },
    {
      "id": "135f351200091a46b189eb7dca477174d6d2ee2f123b9811d574557d6032e284",
      "name": "ASDA WREXHAM ROAD EXPRESS PETROL",
      "brand": "BP",
      "address": "",
      "postcode": "CH4 9DE",
      "lat": 53.162955,
      "lng": -2.908206,
      "unleaded": 143.9,
      "diesel": 171.9,
      "updated": "2026-03-12T14:13:35.719Z",
      "cached": false,
      "distance": 5.7
    },
    {
      "id": "36e2c41a1233239e1a4060baac60fdfcef7ea78201a4e0cd6fde23ac282b14fa",
      "name": "ASDA PARKGATE EXPRESS PETROL",
      "brand": "ESSO",
      "address": "",
      "postcode": "CH1 4BE",
      "lat": 53.2043,
      "lng": -2.9023,
      "unleaded": 141.9,
      "diesel": 158.9,
      "updated": "2026-03-12T14:07:01.299Z",
      "cached": false,
      "distance": 5.1
    },
    {
      "id": "aea56d7e6a2a0e2e17e3b60c2918b3bfb4d8589e5e559ab63208a3e0f362a658",
      "name": "Asda Parkgate Road, Chester",
      "brand": "BP",
      "address": "",
      "postcode": "CH1 6JS",
      "lat": 53.232995,
      "lng": -2.942376,
      "unleaded": 149.9,
      "diesel": 171.9,
      "updated": "2026-03-12T14:13:02.796Z",
      "cached": false,
      "distance": 4.0
    },
    {
      "id": "82da9b8017801f8c3f63c5a1e6fde62c613ecb8041a0830cfcd019160551c892",
      "name": "COSTCO WHOLESALE CHESTER",
      "brand": "COSTCO WHOLESALE",
      "address": "",
      "postcode": "CH1 6LT",
      "lat": 53.24496,
      "lng": -2.93034,
      "unleaded": 132.9,
      "diesel": 152.9,
      "updated": "2026-03-12T16:47:03.103Z",
      "cached": false,
      "distance": 4.8
    },
    {
      "id": "806062a0ebb200a886430a8b5de92a39fc012a6c10f09f601205989b6719f8b9",
      "name": "ASDA HANDBRIDGE EXPRESS PETROL",
      "brand": "ASDA EXPRESS",
      "address": "",
      "postcode": "CH4 7JF",
      "lat": 53.183942,
      "lng": -2.887504,
      "unleaded": 141.9,
      "diesel": 159.9,
      "updated": "2026-03-12T17:49:55.299Z",
      "cached": false,
      "distance": 5.9
    },
    {
      "id": "0733b13f4e95824d1db01e38ce47a87439e5b7462ba530c517f228a27e61d283",
      "name": "EG MOSTON PFS",
      "brand": "EG ON THE MOVE",
      "address": "",
      "postcode": "CH2 4BA",
      "lat": 53.226651,
      "lng": -2.894146,
      "unleaded": null,
      "diesel": null,
      "updated": null,
      "cached": false,
      "distance": 5.7
    },
    {
      "id": "e49c4b7d58eb0086c319611d8208bc326ff22127500cd38b5653fb7bad6c1eb3",
      "name": "Gordale Service Station",
      "brand": "Gordale Service Station",
      "address": "",
      "postcode": "CH64 8TF",
      "lat": 53.2741984,
      "lng": -3.0014083,
      "unleaded": 137.9,
      "diesel": 145.9,
      "updated": "3/9/2026",
      "cached": true,
      "distance": 4.9
    },
    {
      "id": "d8c00e703238d508fba619b5099d4d45a20bb36166b283ffed41047e3b5653cf",
      "name": "ASDA ELLESMERE PORT EXPRESS PETROL",
      "brand": "ESSO",
      "address": "",
      "postcode": "CH65 6TF",
      "lat": 53.278,
      "lng": -2.904,
      "unleaded": 141.9,
      "diesel": 159.9,
      "updated": "2026-03-12T20:47:43.784Z",
      "cached": false,
      "distance": 7.1
    },
    {
      "id": "acadb0d633e2a14bd2a931160b9073088c855031ecbdf9771aa1091bc87bc01b",
      "name": "Ellesmere Port Service Station",
      "brand": "Ellesmere Port Service Station",
      "address": "",
      "postcode": "CH65 3AA",
      "lat": 53.2898073,
      "lng": -2.9077945,
      "unleaded": 139.9,
      "diesel": 155.9,
      "updated": "2026-03-09T12:44:44.325Z",
      "cached": false,
      "distance": 7.6
    },
    {
      "id": "bb980e486287fcfb38b6360841434b3841592df6632490ed611d0d242043bba5",
      "name": "HILLCREST MOTOR CO LTD",
      "brand": "GULF",
      "address": "",
      "postcode": "CH8 7SJ",
      "lat": 53.26136,
      "lng": -3.20879,
      "unleaded": 141.9,
      "diesel": 159.9,
      "updated": "2026-03-11T09:53:21.523Z",
      "cached": false,
      "distance": 8.5
    },
    {
      "id": "26e9361dd7901da3a3afd83504bc63c68092d72e48c0ebab87f592382cda95ea",
      "name": "SHELL LITTLE WAITROSE HINDERTON",
      "brand": "SHELL",
      "address": "",
      "postcode": "CH64 7TA",
      "lat": 53.294253,
      "lng": -3.042575,
      "unleaded": 141.9,
      "diesel": 161.9,
      "updated": "2026-03-12T17:37:04.696Z",
      "cached": false,
      "distance": 6.2
    },
    {
      "id": "d60f939383f0266c6109cf2520de29a516ed6b5cf43cbcba77283338010c9b93",
      "name": "SHELL CO-OP MOLD",
      "brand": "SHELL",
      "address": "",
      "postcode": "CH7 6LQ",
      "lat": 53.181156,
      "lng": -3.111588,
      "unleaded": 147.9,
      "diesel": 166.9,
      "updated": "2026-03-12T17:37:29.622Z",
      "cached": false,
      "distance": 3.9
    },
    {
      "id": "810bdae8b3959a35d95d90182dbb0defb5afe50a10f01f0f934bd01e7029d8e4",
      "name": "BR Flint",
      "brand": "Spar",
      "address": "",
      "postcode": "CH6 5DZ",
      "lat": 53.2443473,
      "lng": -3.1222575,
      "unleaded": 141.9,
      "diesel": 165.9,
      "updated": "2026-03-10T11:27:09.898Z",
      "cached": false,
      "distance": 4.8
    },
    {
      "id": "72f843049279ae13b6138241e0aeaaea1c87e962a9b3b59d6d54b88d56e7aad8",
      "name": "Esso - Saltney Service Station",
      "brand": "Saltney Service Station",
      "address": "",
      "postcode": "CH4 8SJ",
      "lat": 53.178903,
      "lng": -2.922518,
      "unleaded": 136.9,
      "diesel": 159.9,
      "updated": "2026-03-09T11:40:18.467Z",
      "cached": false,
      "distance": 4.7
    },
    {
      "id": "8a0eed0f092aa5a2f422dbccdb4704e24ec4c2e13128358b055fb93d46773c12",
      "name": "Esso - Queensferry Service Station",
      "brand": "Queensferry Service Station",
      "address": "",
      "postcode": "CH5 1QD",
      "lat": 53.2088991,
      "lng": -3.0326318,
      "unleaded": 136.9,
      "diesel": 159.9,
      "updated": "2026-03-09T13:45:35.066Z",
      "cached": false,
      "distance": 0.4
    },
    {
      "id": "a61af0fe0d03ebf6236f4df10e383856d227d1da9393ab58c26467a1fe4a0b30",
      "name": "MFG COLESHILL",
      "brand": "SHELL",
      "address": "",
      "postcode": "CH6 5RR",
      "lat": 53.253768,
      "lng": -3.14176,
      "unleaded": 141.9,
      "diesel": 165.9,
      "updated": "2026-03-12T13:42:50.506Z",
      "cached": false,
      "distance": 5.8
    },
    {
      "id": "25e74db35497d2a373117899c09515861cd7ba5f6a6597d235afc85b835ba629",
      "name": "SMITHY VIEW SERVICE STATION ACTON",
      "brand": "SMITHY VIEW SERVICE STATION ACTON",
      "address": "",
      "postcode": "LL12 8DY",
      "lat": 53.0687749,
      "lng": -2.9908063,
      "unleaded": 139.7,
      "diesel": 159.7,
      "updated": "2026-03-12T15:57:50.301Z",
      "cached": false,
      "distance": 9.5
    },
    {
      "id": "9fd407a85b1befff2d7f6bca51d93e879ee6d6031b7e922ce36744c6bd54cebc",
      "name": "MOLD SUPERSTORE - PETROL FILLING STATION",
      "brand": "TESCO",
      "address": "",
      "postcode": "CH7 1UB",
      "lat": 53.16708,
      "lng": -3.13754,
      "unleaded": 141.9,
      "diesel": 158.9,
      "updated": "2026-03-11T18:18:47.679Z",
      "cached": false,
      "distance": 5.3
    },
    {
      "id": "fd20c8e99484f6e759eae93619cab8f79ccff10fa59c77c12679cd0d585b60f4",
      "name": "BROUGHTON CHESTER EXTRA - PETROL FILLING STATION",
      "brand": "TESCO",
      "address": "",
      "postcode": "CH4 0DP",
      "lat": 53.16935,
      "lng": -2.9739,
      "unleaded": 138.9,
      "diesel": 156.9,
      "updated": "2026-03-11T18:11:34.611Z",
      "cached": false,
      "distance": 3.3
    },
    {
      "id": "de751076565959972cd5aa22ed8ad16c1b990aca50eaa6abe694af815e42e6d9",
      "name": "Rhydymwyn Service Station",
      "brand": "Rhydymwyn Service Station",
      "address": "",
      "postcode": "CH7 5HE",
      "lat": 53.1928694,
      "lng": -3.1889389,
      "unleaded": 137.9,
      "diesel": 159.9,
      "updated": "2026-03-11T13:44:25.138Z",
      "cached": false,
      "distance": 6.8
    },
    {
      "id": "27288fd74b51e0aff2c26e78c38f8fe4d60ffdbf8b6b097970a4ca3ae60b36f0",
      "name": "FOUR ACES FILLING STATION",
      "brand": "JET",
      "address": "",
      "postcode": "NE10 8YB",
      "lat": 53.1526091,
      "lng": -3.2031627,
      "unleaded": 139.9,
      "diesel": 159.9,
      "updated": "2026-03-10T02:50:52.198Z",
      "cached": false,
      "distance": 8.2
    },
    {
      "id": "90e7c60c1ff497cfa3be5809481d6846995953f77c0ca53eac3c6a96d34a7c2a",
      "name": "RUTHIN",
      "brand": "TEXACO",
      "address": "",
      "postcode": "LL151NB",
      "lat": 53.1134,
      "lng": -3.31576,
      "unleaded": 139.9,
      "diesel": 164.9,
      "updated": "2026-03-12T11:28:36.112Z",
      "cached": false,
      "distance": 13.6
    },
    {
      "id": "03912468dd4c99239ab4b88a053ab3123d1c191ccea88d1833a032e282c22595",
      "name": "MFG MORRISONS ELLESMERE PORT",
      "brand": "MORRISONS",
      "address": "",
      "postcode": "CH65 6RU",
      "lat": 53.273606,
      "lng": -2.910218,
      "unleaded": 136.9,
      "diesel": 155.9,
      "updated": "2026-03-12T12:58:09.815Z",
      "cached": false,
      "distance": 6.8
    },
    {
      "id": "ec10d667058b4b928ed9c26bf1f2829273680479b27ef5f8f78df1b365df90ad",
      "name": "SHELL MERSEY VIEW",
      "brand": "SHELL",
      "address": "",
      "postcode": "CH65 4AX",
      "lat": 53.284662,
      "lng": -2.89441,
      "unleaded": 143.9,
      "diesel": 162.9,
      "updated": "2026-03-12T13:19:21.900Z",
      "cached": false,
      "distance": 7.8
    },
    {
      "id": "67014f0a91451ded6395e3cae9f23c8f76aa961a3b43887cca7e6316775052f5",
      "name": "IVANHOE SERVICE STATION",
      "brand": "BP",
      "address": "",
      "postcode": "DL2 1TD",
      "lat": 53.238044,
      "lng": -3.1376907,
      "unleaded": 142.9,
      "diesel": 163.9,
      "updated": "2026-03-12T10:13:21.207Z",
      "cached": false,
      "distance": 5.1
    },
    {
      "id": "db831fa91a8b5b61ca51295369900d3140d4c6d5da262930799f2e765dcd952d",
      "name": "SAINSBURYS WREXHAM",
      "brand": "SAINSBURY'S",
      "address": "",
      "postcode": "LL11 2BA",
      "lat": 53.05571,
      "lng": -3.00904,
      "unleaded": 138.9,
      "diesel": 154.9,
      "updated": "2026-03-12T22:21:16.342Z",
      "cached": false,
      "distance": 10.3
    },
    {
      "id": "2781eba3566004e8005f6db238b4a261b9ef6f97edf3ef83e07574d84d106b64",
      "name": "BR Buckley",
      "brand": "Spar",
      "address": "",
      "postcode": "CH7 2NJ",
      "lat": 53.1685643,
      "lng": -3.0885872,
      "unleaded": 144.9,
      "diesel": 161.9,
      "updated": "2026-03-10T12:58:49.505Z",
      "cached": false,
      "distance": 3.6
    }
  ]
}