{
  "nationalAvg": {
    "unleaded": 139.3,
    "diesel": 157.0
  },
  "lastUpdated": "2026-03-10T11:02:52.092182+00:00",
  "stationCount": 15,
  "stations": [
    {
      "name": "SAINSBURYS PENSBY ROAD THINGWALL",
      "brand": "SAINSBURY'S",
      "address": "PENSBY ROAD, WIRRAL, CH61 7UB",
      "lat": 53.35295,
      "lng": -3.09298,
      "distance": 10.3,
      "is_supermarket": false,
      "is_motorway": false,
      "unleaded": 135.9,
      "diesel": 149.9,
      "updated": "2026-03-09T22:50:22.060Z",
      "id": 1
    },
    {
      "name": "MFG MORRISONS WEST KIRBY",
      "brand": "MORRISONS",
      "address": "ORRYSDALE ROAD, WEST KIRBY, CH48 4HX",
      "lat": 53.374111,
      "lng": -3.181775,
      "distance": 13.0,
      "is_supermarket": false,
      "is_motorway": false,
      "unleaded": 135.9,
      "diesel": 148.9,
      "updated": "2026-03-10T08:56:34.458Z",
      "id": 2
    },
    {
      "name": "MFG MORRISONS WREXHAM",
      "brand": "MORRISONS",
      "address": "RUTHIN ROAD/CENTENARY ROAD, WREXHAM, LL13 7TU",
      "lat": 53.043351,
      "lng": -3.004505,
      "distance": 11.5,
      "is_supermarket": false,
      "is_motorway": false,
      "unleaded": 135.9,
      "diesel": 148.9,
      "updated": "2026-03-10T09:07:06.500Z",
      "id": 8
    },
    {
      "name": "SAINSBURYS CHESTER",
      "brand": "SAINSBURY'S",
      "address": "CALDY VALLEY ROAD, GREAT BOUGHTON, CHESTER, CH3 5QJ",
      "lat": 53.18467,
      "lng": -2.85543,
      "distance": 7.5,
      "is_supermarket": false,
      "is_motorway": false,
      "unleaded": 135.9,
      "diesel": 151.9,
      "updated": "2026-03-09T22:27:12.064Z",
      "id": 10
    },
    {
      "name": "MFG BEBINGTON",
      "brand": "TEXACO",
      "address": "26 OLD CHESTER ROAD, BEBINGTON, CH63 7LQ",
      "lat": 53.359963,
      "lng": -3.006007,
      "distance": 10.5,
      "is_supermarket": false,
      "is_motorway": false,
      "unleaded": 135.9,
      "diesel": 149.9,
      "updated": "2026-03-10T09:13:38.535Z",
      "id": 12
    },
    {
      "name": "H W Oultram & Co",
      "brand": "OIL 4 WALES",
      "address": "H W OULTRAM & CO, NEWBRIDGE FARM & FILLING STATION, HOLYWELL ROAD, EWLOE, DEESIDE, CH5 3BS, DEESIDE, CH5 3BS",
      "lat": 53.1959232,
      "lng": -3.0636485,
      "distance": 1.6,
      "is_supermarket": false,
      "is_motorway": false,
      "unleaded": 139.9,
      "diesel": 158.9,
      "updated": "2026-03-09T16:10:51.177Z",
      "id": 3
    },
    {
      "name": "MFG MORRISONS DENBIGH",
      "brand": "MORRISONS",
      "address": "SMITHFIELD ROAD, DENBIGH, LL16 3LW",
      "lat": 53.18224,
      "lng": -3.423087,
      "distance": 16.3,
      "is_supermarket": false,
      "is_motorway": false,
      "unleaded": 139.9,
      "diesel": 155.9,
      "updated": "2026-03-10T09:01:28.600Z",
      "id": 5
    },
    {
      "name": "BP HARVEST ENERGY OVERPOOL",
      "brand": "BP HARVEST ENERGY",
      "address": "OVERPOOL ROAD, ELLESMERE PORT, CH66 2JF",
      "lat": 53.2714848,
      "lng": -2.9206747,
      "distance": 6.3,
      "is_supermarket": false,
      "is_motorway": false,
      "unleaded": 139.9,
      "diesel": 169.9,
      "updated": "2026-03-10T10:55:49.720Z",
      "id": 7
    },
    {
      "name": "MFG GREASBY",
      "brand": "ESSO",
      "address": "GREASBY ROAD, GREASBY  WIRRAL, CH49 2PF",
      "lat": 53.379848,
      "lng": -3.116135,
      "distance": 12.3,
      "is_supermarket": false,
      "is_motorway": false,
      "unleaded": 139.9,
      "diesel": 152.9,
      "updated": "2026-03-10T08:19:27.340Z",
      "id": 9
    },
    {
      "name": "SHELL CO-OP WREXHAM",
      "brand": "SHELL",
      "address": "MOLD ROAD, WREXHAM, LL11 2AF",
      "lat": 53.051908,
      "lng": -3.006356,
      "distance": 10.9,
      "is_supermarket": false,
      "is_motorway": false,
      "unleaded": 140.9,
      "diesel": 154.9,
      "updated": "2026-03-09T12:05:35.155Z",
      "id": 4
    },
    {
      "name": "ASCONA HOLYWELL SERVICE STATION",
      "brand": "VALERO",
      "address": "HOLWAY ROAD, HOLYWELL, CH8 7LQ",
      "lat": 53.279441,
      "lng": -3.2410974,
      "distance": 9.9,
      "is_supermarket": false,
      "is_motorway": false,
      "unleaded": 143.0,
      "diesel": 155.0,
      "updated": "2026-03-10T08:49:33.787Z",
      "id": 6
    },
    {
      "name": "CASTLE VIEW",
      "brand": "TEXACO",
      "address": "RHYL ROAD, DENBIGH, LL16 5SU",
      "lat": 53.1912,
      "lng": -3.40882,
      "distance": 15.6,
      "is_supermarket": false,
      "is_motorway": false,
      "unleaded": 143.9,
      "diesel": 163.9,
      "updated": "2026-03-10T10:41:23.812Z",
      "id": 11
    },
    {
      "name": "Asda Quay Express (Esso)",
      "brand": "ESSO",
      "address": "Church Street, Connah's Quay, CH5 4AS",
      "lat": 53.22449,
      "lng": -3.071442,
      "unleaded": null,
      "diesel": null,
      "updated": "",
      "distance": 1.2,
      "is_supermarket": false,
      "is_motorway": false,
      "note": "Not reporting prices",
      "id": 13
    },
    {
      "name": "Asda Deeside Express Petrol",
      "brand": "ASDA",
      "address": "Parkway, Deeside, CH5 2NS",
      "lat": 53.228,
      "lng": -3.012,
      "unleaded": null,
      "diesel": null,
      "updated": "",
      "distance": 1.8,
      "is_supermarket": true,
      "is_motorway": false,
      "note": "Not reporting prices",
      "id": 14
    },
    {
      "name": "Asda Queensferry Petrol",
      "brand": "ASDA",
      "address": "Aston Road, Queensferry, CH5 1TQ",
      "lat": 53.205,
      "lng": -3.0265,
      "unleaded": null,
      "diesel": null,
      "updated": "",
      "distance": 0.8,
      "is_supermarket": true,
      "is_motorway": false,
      "note": "Not reporting prices",
      "id": 15
    }
  ]
}