{
  "nationalAvg": {
    "unleaded": 142.5,
    "diesel": 167.0
  },
  "lastUpdated": "2026-03-12T11:09:32.963922+00:00",
  "stationCount": 96,
  "stations": [
    {
      "name": "SAINSBURYS PENSBY ROAD THINGWALL",
      "brand": "SAINSBURY'S",
      "address": "",
      "postcode": "CH61 7UB",
      "lat": 53.35295,
      "lng": -3.09298,
      "unleaded": 136.9,
      "diesel": 155.9,
      "updated": "2026-03-11T22:55:21.000Z",
      "cached": false
    },
    {
      "name": "MFG MORRISONS WEST KIRBY",
      "brand": "MORRISONS",
      "address": "",
      "postcode": "CH48 4HX",
      "lat": 53.374111,
      "lng": -3.181775,
      "unleaded": 136.9,
      "diesel": 163.9,
      "updated": "2026-03-12T08:57:30.000Z",
      "cached": false
    },
    {
      "name": "H W Oultram & Co",
      "brand": "Oil 4 Wales",
      "address": "",
      "postcode": "CH5 3BS",
      "lat": 53.1959232,
      "lng": -3.0636485,
      "unleaded": 139.9,
      "diesel": 158.9,
      "updated": "2026-03-09T16:10:47.000Z",
      "cached": false
    },
    {
      "name": "SHELL CO-OP WREXHAM",
      "brand": "SHELL",
      "address": "",
      "postcode": "LL11 2AF",
      "lat": 53.051908,
      "lng": -3.006356,
      "unleaded": 142.9,
      "diesel": 179.9,
      "updated": "2026-03-11T17:53:00.000Z",
      "cached": false
    },
    {
      "name": "MFG MORRISONS LIVERPOOL BELLE VALE",
      "brand": "MORRISONS",
      "address": "",
      "postcode": "L25 2RD",
      "lat": 53.388579,
      "lng": -2.857531,
      "unleaded": 135.9,
      "diesel": 155.9,
      "updated": "2026-03-12T07:55:29.000Z",
      "cached": false
    },
    {
      "name": "PGG LEVERHULME",
      "brand": "VALERO LEVERHULME",
      "address": "",
      "postcode": "CH62 6AT",
      "lat": 53.32585,
      "lng": -2.97254,
      "unleaded": null,
      "diesel": null,
      "updated": null,
      "cached": false
    },
    {
      "name": "ASCONA HOLYWELL SERVICE STATION",
      "brand": "VALERO",
      "address": "",
      "postcode": "CH8 7LQ",
      "lat": 53.279441,
      "lng": -3.2410974,
      "unleaded": null,
      "diesel": null,
      "updated": null,
      "cached": false
    },
    {
      "name": "BP HARVEST ENERGY GRASSENDALE",
      "brand": "BP HARVEST ENERGY",
      "address": "",
      "postcode": "L19 0NY",
      "lat": 53.3611763,
      "lng": -2.9129944,
      "unleaded": null,
      "diesel": null,
      "updated": null,
      "cached": false
    },
    {
      "name": "BP HARVEST ENERGY OVERPOOL",
      "brand": "BP HARVEST ENERGY",
      "address": "",
      "postcode": "CH66 2JF",
      "lat": 53.2714848,
      "lng": -2.9206747,
      "unleaded": null,
      "diesel": null,
      "updated": null,
      "cached": false
    },
    {
      "name": "MFG GREASBY",
      "brand": "ESSO",
      "address": "",
      "postcode": "CH49 2PF",
      "lat": 53.379848,
      "lng": -3.116135,
      "unleaded": null,
      "diesel": null,
      "updated": null,
      "cached": false
    },
    {
      "name": "SAINSBURYS CHESTER",
      "brand": "SAINSBURY'S",
      "address": "",
      "postcode": "CH3 5QJ",
      "lat": 53.18467,
      "lng": -2.85543,
      "unleaded": null,
      "diesel": null,
      "updated": null,
      "cached": false
    },
    {
      "name": "JACOBS WELL SERVICE STATION",
      "brand": "JET",
      "address": "",
      "postcode": "WF1 3NS",
      "lat": 53.2922431,
      "lng": -2.9523846,
      "unleaded": null,
      "diesel": null,
      "updated": null,
      "cached": false
    },
    {
      "name": "MFG BEBINGTON",
      "brand": "TEXACO",
      "address": "",
      "postcode": "CH63 7LQ",
      "lat": 53.359963,
      "lng": -3.006007,
      "unleaded": null,
      "diesel": null,
      "updated": null,
      "cached": false
    },
    {
      "name": "SHELL CHESTER",
      "brand": "SHELL",
      "address": "",
      "postcode": "CH3 5NJ",
      "lat": 53.193526,
      "lng": -2.856604,
      "unleaded": null,
      "diesel": null,
      "updated": null,
      "cached": false
    },
    {
      "name": "MFG MORRISONS CHESTER LIVERPOOL ROAD",
      "brand": "MORRISONS",
      "address": "",
      "postcode": "CH2 1AU",
      "lat": 53.209038,
      "lng": -2.894566,
      "unleaded": null,
      "diesel": null,
      "updated": null,
      "cached": false
    },
    {
      "name": "MFG ROWTON",
      "brand": "ESSO",
      "address": "",
      "postcode": "CH3 6AF",
      "lat": 53.176188,
      "lng": -2.825907,
      "unleaded": null,
      "diesel": null,
      "updated": null,
      "cached": false
    },
    {
      "name": "SAINSBURYS ELLESMERE PORT",
      "brand": "SAINSBURY'S",
      "address": "",
      "postcode": "CH65 9HN",
      "lat": 53.26233,
      "lng": -2.88042,
      "unleaded": null,
      "diesel": null,
      "updated": null,
      "cached": false
    },
    {
      "name": "BR Gwersyllt",
      "brand": "Spar",
      "address": "",
      "postcode": "LL11 4AH",
      "lat": 53.0792616,
      "lng": -3.021987,
      "unleaded": null,
      "diesel": null,
      "updated": null,
      "cached": false
    },
    {
      "name": "SHELL CARLETT",
      "brand": "SHELL",
      "address": "",
      "postcode": "CH62 0BZ",
      "lat": 53.314799,
      "lng": -2.963826,
      "unleaded": null,
      "diesel": null,
      "updated": null,
      "cached": false
    },
    {
      "name": "INCH FILLING STATION",
      "brand": "ESSO",
      "address": "",
      "postcode": "DG9 8RY",
      "lat": 53.0845618,
      "lng": -2.9738553,
      "unleaded": null,
      "diesel": null,
      "updated": null,
      "cached": false
    },
    {
      "name": "MFG MORRISONS SALTNEY",
      "brand": "MORRISONS",
      "address": "",
      "postcode": "CH4 8RU",
      "lat": 53.178287,
      "lng": -2.935342,
      "unleaded": null,
      "diesel": null,
      "updated": null,
      "cached": false
    },
    {
      "name": "ESSAR GATEACRE SERVICE STATION",
      "brand": "ESSAR",
      "address": "",
      "postcode": "L25 1PG",
      "lat": 53.3921211,
      "lng": -2.8725312,
      "unleaded": null,
      "diesel": null,
      "updated": null,
      "cached": false
    },
    {
      "name": "SAINSBURYS UPTON",
      "brand": "SAINSBURY'S",
      "address": "",
      "postcode": "CH49 6QG",
      "lat": 53.37986,
      "lng": -3.09998,
      "unleaded": null,
      "diesel": null,
      "updated": null,
      "cached": false
    },
    {
      "name": "SHELL NORTHOP",
      "brand": "SHELL",
      "address": "",
      "postcode": "CH7 6HB",
      "lat": 53.192913,
      "lng": -3.081794,
      "unleaded": null,
      "diesel": null,
      "updated": null,
      "cached": false
    },
    {
      "name": "SHELL NORTHOP HALL",
      "brand": "SHELL",
      "address": "",
      "postcode": "CH7 6HF",
      "lat": 53.197289,
      "lng": -3.088915,
      "unleaded": null,
      "diesel": null,
      "updated": null,
      "cached": false
    },
    {
      "name": "MFG STRAWBERRY",
      "brand": "BP",
      "address": "",
      "postcode": "CH66 2PY",
      "lat": 53.256833,
      "lng": -2.909397,
      "unleaded": null,
      "diesel": null,
      "updated": null,
      "cached": false
    },
    {
      "name": "SHELL SMITHDOWN ROAD",
      "brand": "SHELL",
      "address": "",
      "postcode": "L15 5AH",
      "lat": 53.38964,
      "lng": -2.928035,
      "unleaded": null,
      "diesel": null,
      "updated": null,
      "cached": false
    },
    {
      "name": "MFG MORRISONS LIVERPOOL SPEKE",
      "brand": "MORRISONS",
      "address": "",
      "postcode": "L24 2WZ",
      "lat": 53.346109,
      "lng": -2.838505,
      "unleaded": null,
      "diesel": null,
      "updated": null,
      "cached": false
    },
    {
      "name": "Plas Acton Fuel Station",
      "brand": "Gulf",
      "address": "",
      "postcode": "LL12 8DU",
      "lat": 53.0701313,
      "lng": -2.9897412,
      "unleaded": null,
      "diesel": null,
      "updated": null,
      "cached": false
    },
    {
      "name": "ASDA COEDPOETH EXPRESS PETROL",
      "brand": "ASDA EXPRESS",
      "address": "",
      "postcode": "LL11 3UF",
      "lat": 53.0553979,
      "lng": -3.0743781,
      "unleaded": null,
      "diesel": null,
      "updated": null,
      "cached": false
    },
    {
      "name": "ASDA HOLT ROAD EXPRESS PETROL",
      "brand": "ESSO",
      "address": "",
      "postcode": "LL13 9SB",
      "lat": 53.061185,
      "lng": -2.953648,
      "unleaded": null,
      "diesel": null,
      "updated": null,
      "cached": false
    },
    {
      "name": "Dyffryn Service Station",
      "brand": "Esso",
      "address": "",
      "postcode": "LL15 1PE",
      "lat": 53.1167433,
      "lng": -3.3249443,
      "unleaded": null,
      "diesel": null,
      "updated": null,
      "cached": false
    },
    {
      "name": "ASDA SINGING KETTLE S/STN EXPRESS PETROL",
      "brand": "BP",
      "address": "",
      "postcode": "CH8 8RD",
      "lat": 53.274981,
      "lng": -3.292738,
      "unleaded": null,
      "diesel": null,
      "updated": null,
      "cached": false
    },
    {
      "name": "ASDA TREFFYNNON EXPRESS PETROL",
      "brand": "ESSO",
      "address": "",
      "postcode": "CH8 7SG",
      "lat": 53.267,
      "lng": -3.216,
      "unleaded": null,
      "diesel": null,
      "updated": null,
      "cached": false
    },
    {
      "name": "RONTEC HOYLAKE",
      "brand": "ESSO",
      "address": "",
      "postcode": "CH47 0LA",
      "lat": 53.39785,
      "lng": -3.16973,
      "unleaded": null,
      "diesel": null,
      "updated": null,
      "cached": false
    },
    {
      "name": "ASDA WYLFA EXPRESS PETROL",
      "brand": "ESSO",
      "address": "",
      "postcode": "CH7 1UE",
      "lat": 53.166963,
      "lng": -3.133838,
      "unleaded": null,
      "diesel": null,
      "updated": null,
      "cached": false
    },
    {
      "name": "EG MOLD PFS",
      "brand": "EG ON THE MOVE",
      "address": "",
      "postcode": "CH7 1LB",
      "lat": 53.170418,
      "lng": -3.138778,
      "unleaded": null,
      "diesel": null,
      "updated": null,
      "cached": false
    },
    {
      "name": "EG PONTBLYDDYN PFS",
      "brand": "EG ON THE MOVE",
      "address": "",
      "postcode": "CH7 4HL",
      "lat": 53.137161,
      "lng": -3.083567,
      "unleaded": null,
      "diesel": null,
      "updated": null,
      "cached": false
    },
    {
      "name": "Dobshill Service Station",
      "brand": "Dobshill Service Station",
      "address": "",
      "postcode": "CH5 3LZ",
      "lat": 53.1636207,
      "lng": -3.039481,
      "unleaded": null,
      "diesel": null,
      "updated": null,
      "cached": false
    },
    {
      "name": "ASDA QUEENSFERRY",
      "brand": "ASDA",
      "address": "",
      "postcode": "CH5 1TP",
      "lat": 53.2049518,
      "lng": -3.0265271,
      "unleaded": null,
      "diesel": null,
      "updated": null,
      "cached": false
    },
    {
      "name": "ASDA QUAY EXPRESS PETROL",
      "brand": "ESSO",
      "address": "",
      "postcode": "CH5 4AS",
      "lat": 53.22449,
      "lng": -3.071442,
      "unleaded": null,
      "diesel": null,
      "updated": null,
      "cached": false
    },
    {
      "name": "ASDA DEESIDE EXPRESS PETROL",
      "brand": "BP",
      "address": "",
      "postcode": "CH5 2NS",
      "lat": 53.232092,
      "lng": -3.006867,
      "unleaded": null,
      "diesel": null,
      "updated": null,
      "cached": false
    },
    {
      "name": "ASDA WREXHAM ROAD EXPRESS PETROL",
      "brand": "BP",
      "address": "",
      "postcode": "CH4 9DE",
      "lat": 53.162955,
      "lng": -2.908206,
      "unleaded": null,
      "diesel": null,
      "updated": null,
      "cached": false
    },
    {
      "name": "ASDA PARKGATE EXPRESS PETROL",
      "brand": "ESSO",
      "address": "",
      "postcode": "CH1 4BE",
      "lat": 53.2043,
      "lng": -2.9023,
      "unleaded": null,
      "diesel": null,
      "updated": null,
      "cached": false
    },
    {
      "name": "ASDA RED ENSIGN EXPRESS PETROL",
      "brand": "BP",
      "address": "",
      "postcode": "CH1 6JS",
      "lat": 53.232995,
      "lng": -2.942376,
      "unleaded": null,
      "diesel": null,
      "updated": null,
      "cached": false
    },
    {
      "name": "COSTCO WHOLESALE CHESTER",
      "brand": "COSTCO WHOLESALE",
      "address": "",
      "postcode": "CH1 6LT",
      "lat": 53.24496,
      "lng": -2.93034,
      "unleaded": null,
      "diesel": null,
      "updated": null,
      "cached": false
    },
    {
      "name": "ASDA HANDBRIDGE EXPRESS PETROL",
      "brand": "ASDA EXPRESS",
      "address": "",
      "postcode": "CH4 7JF",
      "lat": 53.183942,
      "lng": -2.887504,
      "unleaded": null,
      "diesel": null,
      "updated": null,
      "cached": false
    },
    {
      "name": "EG MOSTON PFS",
      "brand": "EG ON THE MOVE",
      "address": "",
      "postcode": "CH2 4BA",
      "lat": 53.226651,
      "lng": -2.894146,
      "unleaded": null,
      "diesel": null,
      "updated": null,
      "cached": false
    },
    {
      "name": "Gordale Service Station",
      "brand": "Gordale Service Station",
      "address": "",
      "postcode": "CH64 8TF",
      "lat": 53.2741984,
      "lng": -3.0014083,
      "unleaded": null,
      "diesel": null,
      "updated": null,
      "cached": false
    },
    {
      "name": "SPITAL SF CONNECT",
      "brand": "BP",
      "address": "",
      "postcode": "CH63 3EL",
      "lat": 53.34132,
      "lng": -3.00749,
      "unleaded": null,
      "diesel": null,
      "updated": null,
      "cached": false
    },
    {
      "name": "RONTEC BEBINGTON",
      "brand": "BP",
      "address": "",
      "postcode": "CH63 7RD",
      "lat": 53.34781,
      "lng": -2.99834,
      "unleaded": null,
      "diesel": null,
      "updated": null,
      "cached": false
    },
    {
      "name": "ASDA ARROWE PARK SUPERSTORE",
      "brand": "ASDA",
      "address": "",
      "postcode": "CH49 5PD",
      "lat": 53.3700696,
      "lng": -3.0784032,
      "unleaded": null,
      "diesel": null,
      "updated": null,
      "cached": false
    },
    {
      "name": "ASDA LAIRDS EXPRESS PETROL",
      "brand": "ESSO",
      "address": "",
      "postcode": "CH41 9BW",
      "lat": 53.379868,
      "lng": -3.01265,
      "unleaded": null,
      "diesel": null,
      "updated": null,
      "cached": false
    },
    {
      "name": "ASDA GREENLANE EXPRESS PETROL",
      "brand": "ESSO",
      "address": "",
      "postcode": "CH41 9AZ",
      "lat": 53.384,
      "lng": -3.015,
      "unleaded": null,
      "diesel": null,
      "updated": null,
      "cached": false
    },
    {
      "name": "ASDA ELLESMERE PORT EXPRESS PETROL",
      "brand": "ESSO",
      "address": "",
      "postcode": "CH65 6TF",
      "lat": 53.278,
      "lng": -2.904,
      "unleaded": null,
      "diesel": null,
      "updated": null,
      "cached": false
    },
    {
      "name": "Ellesmere Port Service Station",
      "brand": "Ellesmere Port Service Station",
      "address": "",
      "postcode": "CH65 3AA",
      "lat": 53.2898073,
      "lng": -2.9077945,
      "unleaded": null,
      "diesel": null,
      "updated": null,
      "cached": false
    },
    {
      "name": "ASDA BROMBOROUGH SUPERSTORE",
      "brand": "ASDA",
      "address": "",
      "postcode": "CH62 3QP",
      "lat": 53.3406587,
      "lng": -2.9764509,
      "unleaded": null,
      "diesel": null,
      "updated": null,
      "cached": false
    },
    {
      "name": "EG SPEKE PFS",
      "brand": "EG ON THE MOVE",
      "address": "",
      "postcode": "L24 9HZ",
      "lat": 53.349059,
      "lng": -2.861843,
      "unleaded": null,
      "diesel": null,
      "updated": null,
      "cached": false
    },
    {
      "name": "ASDA AIGBURTH ROAD EXPRESS PETROL",
      "brand": "ESSO",
      "address": "",
      "postcode": "L17 4JP",
      "lat": 53.380525,
      "lng": -2.952403,
      "unleaded": null,
      "diesel": null,
      "updated": null,
      "cached": false
    },
    {
      "name": "ASDA SEFTON PARK SUPERSTORE",
      "brand": "ASDA",
      "address": "",
      "postcode": "L15 3JR",
      "lat": 53.3941578,
      "lng": -2.9370567,
      "unleaded": null,
      "diesel": null,
      "updated": null,
      "cached": false
    },
    {
      "name": "ASDA HUNTS CROSS SUPERSTORE",
      "brand": "ASDA",
      "address": "",
      "postcode": "L24 9WA",
      "lat": 53.3582927,
      "lng": -2.865599,
      "unleaded": null,
      "diesel": null,
      "updated": null,
      "cached": false
    },
    {
      "name": "ASDA GOWY EXPRESS PETROL",
      "brand": "ESSO",
      "address": "",
      "postcode": "CH3 7HN",
      "lat": 53.2,
      "lng": -2.802,
      "unleaded": null,
      "diesel": null,
      "updated": null,
      "cached": false
    },
    {
      "name": "EG BEACON 62 PFS",
      "brand": "SHELL",
      "address": "",
      "postcode": "L35 1QT",
      "lat": 53.39862,
      "lng": -2.81146,
      "unleaded": null,
      "diesel": null,
      "updated": null,
      "cached": false
    },
    {
      "name": "HILLCREST MOTOR CO LTD",
      "brand": "GULF",
      "address": "",
      "postcode": "CH8 7SJ",
      "lat": 53.26136,
      "lng": -3.20879,
      "unleaded": null,
      "diesel": null,
      "updated": null,
      "cached": false
    },
    {
      "name": "SHELL HAPSFORD MWSA",
      "brand": "SHELL",
      "address": "",
      "postcode": "CH2 4QZ",
      "lat": 53.268277,
      "lng": -2.801322,
      "unleaded": null,
      "diesel": null,
      "updated": null,
      "cached": false
    },
    {
      "name": "SHELL LITTLE WAITROSE HINDERTON",
      "brand": "SHELL",
      "address": "",
      "postcode": "CH64 7TA",
      "lat": 53.294253,
      "lng": -3.042575,
      "unleaded": null,
      "diesel": null,
      "updated": null,
      "cached": false
    },
    {
      "name": "SHELL CO-OP MOLD",
      "brand": "SHELL",
      "address": "",
      "postcode": "CH7 6LQ",
      "lat": 53.181156,
      "lng": -3.111588,
      "unleaded": null,
      "diesel": null,
      "updated": null,
      "cached": false
    },
    {
      "name": "BR Flint",
      "brand": "Spar",
      "address": "",
      "postcode": "CH6 5DZ",
      "lat": 53.2443473,
      "lng": -3.1222575,
      "unleaded": null,
      "diesel": null,
      "updated": null,
      "cached": false
    },
    {
      "name": "Esso - Saltney Service Station",
      "brand": "Saltney Service Station",
      "address": "",
      "postcode": "CH4 8SJ",
      "lat": 53.178903,
      "lng": -2.922518,
      "unleaded": null,
      "diesel": null,
      "updated": null,
      "cached": false
    },
    {
      "name": "LIVERPOOL ALLERTON RD SUPERSTORE - PETROL FILLING STATION",
      "brand": "TESCO",
      "address": "",
      "postcode": "L18 6HF",
      "lat": 53.38121,
      "lng": -2.90916,
      "unleaded": null,
      "diesel": null,
      "updated": null,
      "cached": false
    },
    {
      "name": "Esso - Queensferry Service Station",
      "brand": "Queensferry Service Station",
      "address": "",
      "postcode": "CH5 1QD",
      "lat": 53.2088991,
      "lng": -3.0326318,
      "unleaded": null,
      "diesel": null,
      "updated": null,
      "cached": false
    },
    {
      "name": "SHELL HUNTS CROSS",
      "brand": "SHELL",
      "address": "",
      "postcode": "L25 0NS",
      "lat": 53.359789,
      "lng": -2.854618,
      "unleaded": null,
      "diesel": null,
      "updated": null,
      "cached": false
    },
    {
      "name": "MFG COLESHILL",
      "brand": "SHELL",
      "address": "",
      "postcode": "CH6 5RR",
      "lat": 53.253768,
      "lng": -3.14176,
      "unleaded": null,
      "diesel": null,
      "updated": null,
      "cached": false
    },
    {
      "name": "SMITHY VIEW SERVICE STATION ACTON",
      "brand": "SMITHY VIEW SERVICE STATION ACTON",
      "address": "",
      "postcode": "LL12 8DY",
      "lat": 53.0687749,
      "lng": -2.9908063,
      "unleaded": null,
      "diesel": null,
      "updated": null,
      "cached": false
    },
    {
      "name": "MOLD SUPERSTORE - PETROL FILLING STATION",
      "brand": "TESCO",
      "address": "",
      "postcode": "CH7 1UB",
      "lat": 53.16708,
      "lng": -3.13754,
      "unleaded": null,
      "diesel": null,
      "updated": null,
      "cached": false
    },
    {
      "name": "MFG HALEWOOD",
      "brand": "ESSO",
      "address": "",
      "postcode": "L26 1UN",
      "lat": 53.357973,
      "lng": -2.834598,
      "unleaded": null,
      "diesel": null,
      "updated": null,
      "cached": false
    },
    {
      "name": "SHELL GAYTON",
      "brand": "SHELL",
      "address": "",
      "postcode": "CH60 3RY",
      "lat": 53.322022,
      "lng": -3.084409,
      "unleaded": null,
      "diesel": null,
      "updated": null,
      "cached": false
    },
    {
      "name": "BROUGHTON CHESTER EXTRA - PETROL FILLING STATION",
      "brand": "TESCO",
      "address": "",
      "postcode": "CH4 0DP",
      "lat": 53.16935,
      "lng": -2.9739,
      "unleaded": null,
      "diesel": null,
      "updated": null,
      "cached": false
    },
    {
      "name": "Rhydymwyn Service Station",
      "brand": "Rhydymwyn Service Station",
      "address": "",
      "postcode": "CH7 5HE",
      "lat": 53.1928694,
      "lng": -3.1889389,
      "unleaded": null,
      "diesel": null,
      "updated": null,
      "cached": false
    },
    {
      "name": "BP HARVEST ENERGY HOYLAKE",
      "brand": "BP HARVEST ENERGY",
      "address": "",
      "postcode": "CH46 5NA",
      "lat": 53.3961782,
      "lng": -3.1318942,
      "unleaded": null,
      "diesel": null,
      "updated": null,
      "cached": false
    },
    {
      "name": "SAINSBURYS BIRKENHEAD",
      "brand": "SAINSBURY'S",
      "address": "",
      "postcode": "CH42 8PQ",
      "lat": 53.37472,
      "lng": -3.04765,
      "unleaded": null,
      "diesel": null,
      "updated": null,
      "cached": false
    },
    {
      "name": "SAINSBURYS KINGS ROAD BEBINGTON",
      "brand": "SAINSBURY'S",
      "address": "",
      "postcode": "CH63 8PZ",
      "lat": 53.35656,
      "lng": -3.02542,
      "unleaded": null,
      "diesel": null,
      "updated": null,
      "cached": false
    },
    {
      "name": "SHELL UPTON",
      "brand": "SHELL",
      "address": "",
      "postcode": "CH49 0UE",
      "lat": 53.381566,
      "lng": -3.09902,
      "unleaded": null,
      "diesel": null,
      "updated": null,
      "cached": false
    },
    {
      "name": "FOUR ACES FILLING STATION",
      "brand": "JET",
      "address": "",
      "postcode": "NE10 8YB",
      "lat": 53.1526091,
      "lng": -3.2031627,
      "unleaded": null,
      "diesel": null,
      "updated": null,
      "cached": false
    },
    {
      "name": "TARBOCK WOODLANDS ESSO EXPRESS",
      "brand": "ESSO",
      "address": "",
      "postcode": "L35 1QY",
      "lat": 53.39817,
      "lng": -2.81805,
      "unleaded": null,
      "diesel": null,
      "updated": null,
      "cached": false
    },
    {
      "name": "RUTHIN",
      "brand": "TEXACO",
      "address": "",
      "postcode": "LL151NB",
      "lat": 53.1134,
      "lng": -3.31576,
      "unleaded": null,
      "diesel": null,
      "updated": null,
      "cached": false
    },
    {
      "name": "MFG MORRISONS ELLESMERE PORT",
      "brand": "MORRISONS",
      "address": "",
      "postcode": "CH65 6RU",
      "lat": 53.273606,
      "lng": -2.910218,
      "unleaded": null,
      "diesel": null,
      "updated": null,
      "cached": false
    },
    {
      "name": "SHELL WIRRAL WAY",
      "brand": "SHELL",
      "address": "",
      "postcode": "CH42 0HA",
      "lat": 53.384042,
      "lng": -3.032912,
      "unleaded": null,
      "diesel": null,
      "updated": null,
      "cached": false
    },
    {
      "name": "SHELL HOOLE ROAD",
      "brand": "SHELL",
      "address": "",
      "postcode": "CH2 3NH",
      "lat": 53.199234,
      "lng": -2.878935,
      "unleaded": null,
      "diesel": null,
      "updated": null,
      "cached": false
    },
    {
      "name": "HELMINGTON ROW FILLING STATION",
      "brand": "ESSO",
      "address": "",
      "postcode": "DL15 0RW",
      "lat": 53.3463137,
      "lng": -3.0946933,
      "unleaded": null,
      "diesel": null,
      "updated": null,
      "cached": false
    },
    {
      "name": "BP HARVEST ENERGY SPEKE",
      "brand": "BP HARVEST ENERGY",
      "address": "",
      "postcode": "L24 9HD",
      "lat": 53.3548148,
      "lng": -2.8647401,
      "unleaded": null,
      "diesel": null,
      "updated": null,
      "cached": false
    },
    {
      "name": "SHELL MERSEY VIEW",
      "brand": "SHELL",
      "address": "",
      "postcode": "CH65 4AX",
      "lat": 53.284662,
      "lng": -2.89441,
      "unleaded": null,
      "diesel": null,
      "updated": null,
      "cached": false
    },
    {
      "name": "IVANHOE SERVICE STATION",
      "brand": "BP",
      "address": "",
      "postcode": "DL2 1TD",
      "lat": 53.238044,
      "lng": -3.1376907,
      "unleaded": null,
      "diesel": null,
      "updated": null,
      "cached": false
    },
    {
      "name": "Lobitos",
      "brand": "Esso",
      "address": "",
      "postcode": "CH8 9JS",
      "lat": 53.342343,
      "lng": -3.3371063,
      "unleaded": null,
      "diesel": null,
      "updated": null,
      "cached": false
    },
    {
      "name": "SAINSBURYS WREXHAM",
      "brand": "SAINSBURY'S",
      "address": "",
      "postcode": "LL11 2BA",
      "lat": 53.05571,
      "lng": -3.00904,
      "unleaded": null,
      "diesel": null,
      "updated": null,
      "cached": false
    },
    {
      "name": "BR Buckley",
      "brand": "Spar",
      "address": "",
      "postcode": "CH7 2NJ",
      "lat": 53.1685643,
      "lng": -3.0885872,
      "unleaded": null,
      "diesel": null,
      "updated": null,
      "cached": false
    }
  ]
}