{
  "nationalAvg": {
    "unleaded": 131.7,
    "diesel": 141.5
  },
  "lastUpdated": "2026-03-05T12:00:00Z",
  "stationCount": 74,
  "stations": [
    {
      "id": 36,
      "name": "COSTCO WHOLESALE CHESTER",
      "brand": "COSTCO WHOLESALE",
      "address": "DUNKIRK TRADING ESTATE, CHESTER GATES, CHESTER, CHESTER, CH1 6LT",
      "lat": 53.24496,
      "lng": -2.93034,
      "unleaded": 125.9,
      "diesel": 135.9,
      "updated": "Tue Mar 03 2026 17:18:03 GMT+0000 (Coordinated Universal Time)",
      "distance": 4.9,
      "is_supermarket": false,
      "is_motorway": false
    },
    {
      "id": 55,
      "name": "SMITHY VIEW SERVICE STATION ACTON",
      "brand": "SMITHY VIEW SERVICE STATION ACTON",
      "address": "SMITHY VIEW SERVICE STATION, CHESTER ROAD, WRECSAM, LL12 8DY, WRECSAM, LL12 8DY",
      "lat": 53.0687749,
      "lng": -2.9908063,
      "unleaded": 125.9,
      "diesel": 134.9,
      "updated": "Sat Feb 21 2026 10:07:39 GMT+0000 (Coordinated Universal Time)",
      "distance": 9.8,
      "is_supermarket": false,
      "is_motorway": false
    },
    {
      "id": 26,
      "name": "Plas Acton Fuel Station",
      "brand": "GULF",
      "address": "PLAS ACTON SERVICE STATION, PLAS ACTON GARAGE, 282, CHESTER ROAD, WRECSAM, LL12 8DU, WRECSAM, LL12 8DU",
      "lat": 53.0701313,
      "lng": -2.9897412,
      "unleaded": 127.9,
      "diesel": 137.9,
      "updated": "Mon Feb 02 2026 10:06:01 GMT+0000 (Coordinated Universal Time)",
      "distance": 9.8,
      "is_supermarket": false,
      "is_motorway": false
    },
    {
      "id": 49,
      "name": "Esso - Saltney Service Station",
      "brand": "SALTNEY SERVICE STATION",
      "address": "High Street, Saltney, CH4 8SJ",
      "lat": 53.178903,
      "lng": -2.922518,
      "unleaded": 128.9,
      "diesel": 138.9,
      "updated": "Mon Mar 02 2026 12:40:13 GMT+0000 (Coordinated Universal Time)",
      "distance": 5.0,
      "is_supermarket": false,
      "is_motorway": false
    },
    {
      "id": 20,
      "name": "MFG MORRISONS SALTNEY",
      "brand": "MORRISONS",
      "address": "HIGH STREET, SALTNEY, CH4 8RU",
      "lat": 53.178287,
      "lng": -2.935342,
      "unleaded": 129.9,
      "diesel": 139.9,
      "updated": "Tue Mar 03 2026 22:24:23 GMT+0000 (Coordinated Universal Time)",
      "distance": 4.6,
      "is_supermarket": false,
      "is_motorway": false
    },
    {
      "id": 51,
      "name": "Esso - Queensferry Service Station",
      "brand": "QUEENSFERRY SERVICE STATION",
      "address": "QUEENSFERRY SERVICE STATION, 108, CHESTER ROAD EAST, SHOTTON, DEESIDE, CH5 1QD, DEESIDE, CH5 1QD",
      "lat": 53.2088991,
      "lng": -3.0326318,
      "unleaded": 129.9,
      "diesel": 139.9,
      "updated": "Mon Mar 02 2026 13:50:59 GMT+0000 (Coordinated Universal Time)",
      "distance": 0.0,
      "is_supermarket": false,
      "is_motorway": false
    },
    {
      "id": 12,
      "name": "MFG BEBINGTON",
      "brand": "TEXACO",
      "address": "26 OLD CHESTER ROAD, BEBINGTON, CH63 7LQ",
      "lat": 53.359963,
      "lng": -3.006007,
      "unleaded": 130.9,
      "diesel": 141.9,
      "updated": "Tue Mar 03 2026 23:10:36 GMT+0000 (Coordinated Universal Time)",
      "distance": 10.5,
      "is_supermarket": false,
      "is_motorway": false
    },
    {
      "id": 14,
      "name": "MFG MORRISONS CHESTER LIVERPOOL ROAD",
      "brand": "MORRISONS",
      "address": "LIVERPOOL ROAD, CHESTER, CH2 1AU",
      "lat": 53.209038,
      "lng": -2.894566,
      "unleaded": 130.9,
      "diesel": 140.9,
      "updated": "Tue Mar 03 2026 15:15:13 GMT+0000 (Coordinated Universal Time)",
      "distance": 5.7,
      "is_supermarket": false,
      "is_motorway": false
    },
    {
      "id": 16,
      "name": "SAINSBURYS ELLESMERE PORT",
      "brand": "SAINSBURY'S",
      "address": "KINSEY ROAD, ELLESMERE PORT, CH65 9HN",
      "lat": 53.26233,
      "lng": -2.88042,
      "unleaded": 130.9,
      "diesel": 144.9,
      "updated": "Wed Mar 04 2026 16:12:42 GMT+0000 (Coordinated Universal Time)",
      "distance": 7.3,
      "is_supermarket": false,
      "is_motorway": false
    },
    {
      "id": 41,
      "name": "Barnhills of Broxton",
      "brand": "GULF",
      "address": "BROXTON GARAGE, WHITCHURCH ROAD, BROXTON, CHESTER, CH3 9JR, CHESTER, CH3 9JR",
      "lat": 53.084759,
      "lng": -2.7783339,
      "unleaded": 130.9,
      "diesel": 138.9,
      "updated": "Fri Jan 16 2026 10:29:42 GMT+0000 (Coordinated Universal Time)",
      "distance": 13.6,
      "is_supermarket": true,
      "is_motorway": false
    },
    {
      "id": 8,
      "name": "MFG MORRISONS WREXHAM",
      "brand": "MORRISONS",
      "address": "RUTHIN ROAD/CENTENARY ROAD, WREXHAM, LL13 7TU",
      "lat": 53.043351,
      "lng": -3.004505,
      "unleaded": 131.7,
      "diesel": 139.7,
      "updated": "Wed Mar 04 2026 04:52:14 GMT+0000 (Coordinated Universal Time)",
      "distance": 11.5,
      "is_supermarket": false,
      "is_motorway": false
    },
    {
      "id": 1,
      "name": "SAINSBURYS PENSBY ROAD THINGWALL",
      "brand": "SAINSBURY'S",
      "address": "PENSBY ROAD, WIRRAL, CH61 7UB",
      "lat": 53.35295,
      "lng": -3.09298,
      "unleaded": 131.9,
      "diesel": 140.9,
      "updated": "Wed Mar 04 2026 15:16:14 GMT+0000 (Coordinated Universal Time)",
      "distance": 10.3,
      "is_supermarket": false,
      "is_motorway": false
    },
    {
      "id": 2,
      "name": "MFG MORRISONS WEST KIRBY",
      "brand": "MORRISONS",
      "address": "ORRYSDALE ROAD, WEST KIRBY, CH48 4HX",
      "lat": 53.374111,
      "lng": -3.181775,
      "unleaded": 131.9,
      "diesel": 138.9,
      "updated": "Wed Mar 04 2026 01:53:26 GMT+0000 (Coordinated Universal Time)",
      "distance": 13.0,
      "is_supermarket": false,
      "is_motorway": false
    },
    {
      "id": 59,
      "name": "BROUGHTON CHESTER EXTRA - PETROL FILLING STATION",
      "brand": "TESCO",
      "address": "1 BROUGHTON SHOPPING PARK, CHESTER ROAD, CHESTER, CH4 0DP",
      "lat": 53.16935,
      "lng": -2.9739,
      "unleaded": 131.9,
      "diesel": 141.9,
      "updated": "Wed Mar 04 2026 16:03:00 GMT+0000 (Coordinated Universal Time)",
      "distance": 3.7,
      "is_supermarket": false,
      "is_motorway": false
    },
    {
      "id": 63,
      "name": "SAINSBURYS KINGS ROAD BEBINGTON",
      "brand": "SAINSBURY'S",
      "address": "152 KINGS ROAD, BIRKENHEAD, LIVERPOOL, CH63 8PZ",
      "lat": 53.35656,
      "lng": -3.02542,
      "unleaded": 131.9,
      "diesel": 141.9,
      "updated": "Wed Mar 04 2026 23:35:48 GMT+0000 (Coordinated Universal Time)",
      "distance": 10.2,
      "is_supermarket": false,
      "is_motorway": false
    },
    {
      "id": 66,
      "name": "MFG MORRISONS ELLESMERE PORT",
      "brand": "MORRISONS",
      "address": "CHESTER ROAD, WHITBY, CH65 6RU",
      "lat": 53.273606,
      "lng": -2.910218,
      "unleaded": 131.9,
      "diesel": 141.9,
      "updated": "Wed Mar 04 2026 13:52:10 GMT+0000 (Coordinated Universal Time)",
      "distance": 6.8,
      "is_supermarket": false,
      "is_motorway": false
    },
    {
      "id": 70,
      "name": "WREXHAM EXTRA - PETROL FILLING STATION",
      "brand": "TESCO",
      "address": "CRESCENT ROAD, WREXHAM, LL13 8HF",
      "lat": 53.04619,
      "lng": -2.98742,
      "unleaded": 131.9,
      "diesel": 139.9,
      "updated": "Tue Mar 03 2026 15:25:11 GMT+0000 (Coordinated Universal Time)",
      "distance": 11.4,
      "is_supermarket": false,
      "is_motorway": false
    },
    {
      "id": 10,
      "name": "SAINSBURYS CHESTER",
      "brand": "SAINSBURY'S",
      "address": "CALDY VALLEY ROAD, GREAT BOUGHTON, CHESTER, CH3 5QJ",
      "lat": 53.18467,
      "lng": -2.85543,
      "unleaded": 132.9,
      "diesel": 144.9,
      "updated": "Wed Mar 04 2026 23:32:27 GMT+0000 (Coordinated Universal Time)",
      "distance": 7.5,
      "is_supermarket": false,
      "is_motorway": false
    },
    {
      "id": 37,
      "name": "Gordale Service Station",
      "brand": "GORDALE SERVICE STATION",
      "address": "GORDALE SERVICE STATION, CHESTER HIGH ROAD, BURTON, NESTON, CH64 8TF, NESTON, CH64 8TF",
      "lat": 53.2741984,
      "lng": -3.0014083,
      "unleaded": 132.9,
      "diesel": 145.9,
      "updated": "Tue Mar 03 2026 09:25:21 GMT+0000 (Coordinated Universal Time)",
      "distance": 4.7,
      "is_supermarket": false,
      "is_motorway": false
    },
    {
      "id": 39,
      "name": "RONTEC BEBINGTON",
      "brand": "BP",
      "address": "BROMBOROUGH ROAD, BEBINGTON, CH63 7RD",
      "lat": 53.34781,
      "lng": -2.99834,
      "unleaded": 132.9,
      "diesel": 141.9,
      "updated": "Wed Mar 04 2026 13:58:48 GMT+0000 (Coordinated Universal Time)",
      "distance": 9.7,
      "is_supermarket": false,
      "is_motorway": false
    },
    {
      "id": 50,
      "name": "MFG BEECHLEY",
      "brand": "TEXACO",
      "address": "KINGSMILL ROAD, HIGHTOWN, LL13 8NH",
      "lat": 53.0409,
      "lng": -2.98956,
      "unleaded": 132.9,
      "diesel": 141.9,
      "updated": "Wed Feb 25 2026 09:43:41 GMT+0000 (Coordinated Universal Time)",
      "distance": 11.7,
      "is_supermarket": false,
      "is_motorway": false
    },
    {
      "id": 60,
      "name": "Rhydymwyn Service Station",
      "brand": "RHYDYMWYN SERVICE STATION",
      "address": "A A S RHYDYMWYN LTD, RHYDYMWYN SERVICE STATION, DENBIGH ROAD, RHYDYMWYN, MOLD, CH7 5HE, MOLD, CH7 5HE",
      "lat": 53.1928694,
      "lng": -3.1889389,
      "unleaded": 132.9,
      "diesel": 142.8,
      "updated": "Mon Mar 02 2026 18:31:21 GMT+0000 (Coordinated Universal Time)",
      "distance": 6.5,
      "is_supermarket": false,
      "is_motorway": false
    },
    {
      "id": 62,
      "name": "SAINSBURYS BIRKENHEAD",
      "brand": "SAINSBURY'S",
      "address": "342A WOODCHURCH ROAD, BIRKENHEAD, CH42 8PQ",
      "lat": 53.37472,
      "lng": -3.04765,
      "unleaded": 132.9,
      "diesel": 141.9,
      "updated": "Tue Mar 03 2026 21:46:05 GMT+0000 (Coordinated Universal Time)",
      "distance": 11.5,
      "is_supermarket": false,
      "is_motorway": false
    },
    {
      "id": 72,
      "name": "SAINSBURYS WREXHAM",
      "brand": "SAINSBURY'S",
      "address": "RETAIL PARK, PLAS COCH ROAD, WREXHAM, LL11 2BA",
      "lat": 53.05571,
      "lng": -3.00904,
      "unleaded": 132.9,
      "diesel": 142.9,
      "updated": "Wed Mar 04 2026 15:30:52 GMT+0000 (Coordinated Universal Time)",
      "distance": 10.6,
      "is_supermarket": false,
      "is_motorway": false
    },
    {
      "id": 18,
      "name": "SHELL CARLETT",
      "brand": "SHELL",
      "address": "1201 NEW CHESTER ROAD, WIRRAL, CH62 0BZ",
      "lat": 53.314799,
      "lng": -2.963826,
      "unleaded": 133.9,
      "diesel": 146.9,
      "updated": "Tue Mar 03 2026 17:08:36 GMT+0000 (Coordinated Universal Time)",
      "distance": 7.9,
      "is_supermarket": false,
      "is_motorway": false
    },
    {
      "id": 19,
      "name": "MFG LISCARD",
      "brand": "SHELL",
      "address": "LLOYDS CORNER / LISCARD ROAD, WALLASEY, CH44 9AD",
      "lat": 53.414368,
      "lng": -3.02869,
      "unleaded": 133.9,
      "diesel": 143.9,
      "updated": "Mon Mar 02 2026 14:30:58 GMT+0000 (Coordinated Universal Time)",
      "distance": 14.2,
      "is_supermarket": false,
      "is_motorway": false
    },
    {
      "id": 22,
      "name": "SAINSBURYS UPTON",
      "brand": "SAINSBURY'S",
      "address": "UPTON BY PASS, WIRRAL, CH49 6QG",
      "lat": 53.37986,
      "lng": -3.09998,
      "unleaded": 133.9,
      "diesel": 142.9,
      "updated": "Tue Mar 03 2026 21:58:05 GMT+0000 (Coordinated Universal Time)",
      "distance": 12.1,
      "is_supermarket": false,
      "is_motorway": false
    },
    {
      "id": 25,
      "name": "BP HARVEST ENERGY LAIRD STREET",
      "brand": "BP HARVEST ENERGY",
      "address": "LAIRD STREET, BIRKENHEAD, CH41 7AJ",
      "lat": 53.4007873,
      "lng": -3.0556847,
      "unleaded": 133.9,
      "diesel": 143.9,
      "updated": "Wed Mar 04 2026 13:17:14 GMT+0000 (Coordinated Universal Time)",
      "distance": 13.3,
      "is_supermarket": false,
      "is_motorway": false
    },
    {
      "id": 38,
      "name": "SPITAL SF CONNECT",
      "brand": "BP",
      "address": "BRIMSTAGE ROAD, WIRRAL, CH63 3EL",
      "lat": 53.34132,
      "lng": -3.00749,
      "unleaded": 133.9,
      "diesel": 142.9,
      "updated": "Wed Mar 04 2026 20:01:18 GMT+0000 (Coordinated Universal Time)",
      "distance": 9.2,
      "is_supermarket": false,
      "is_motorway": false
    },
    {
      "id": 43,
      "name": "BIRKENHEAD BIDSTON MOSS EXTRA - PETROL FILLING STATION",
      "brand": "TESCO",
      "address": "BIDSTON LINK ROAD, BIRKENHEAD, CH43 7AA",
      "lat": 53.40799,
      "lng": -3.07026,
      "unleaded": 133.9,
      "diesel": 141.9,
      "updated": "Tue Mar 03 2026 16:11:23 GMT+0000 (Coordinated Universal Time)",
      "distance": 13.8,
      "is_supermarket": false,
      "is_motorway": false
    },
    {
      "id": 61,
      "name": "BP HARVEST ENERGY HOYLAKE",
      "brand": "BP HARVEST ENERGY",
      "address": "HOYLAKE ROAD, WIRRAL, CH46 5NA",
      "lat": 53.3961782,
      "lng": -3.1318942,
      "unleaded": 133.9,
      "diesel": 143.9,
      "updated": "Tue Mar 03 2026 12:47:22 GMT+0000 (Coordinated Universal Time)",
      "distance": 13.6,
      "is_supermarket": false,
      "is_motorway": false
    },
    {
      "id": 3,
      "name": "H W Oultram & Co",
      "brand": "OIL 4 WALES",
      "address": "H W OULTRAM & CO, NEWBRIDGE FARM & FILLING STATION, HOLYWELL ROAD, EWLOE, DEESIDE, CH5 3BS, DEESIDE, CH5 3BS",
      "lat": 53.1959232,
      "lng": -3.0636485,
      "unleaded": 134.9,
      "diesel": 144.9,
      "updated": "Tue Mar 03 2026 15:16:12 GMT+0000 (Coordinated Universal Time)",
      "distance": 1.6,
      "is_supermarket": false,
      "is_motorway": false
    },
    {
      "id": 7,
      "name": "BP HARVEST ENERGY OVERPOOL",
      "brand": "BP HARVEST ENERGY",
      "address": "OVERPOOL ROAD, ELLESMERE PORT, CH66 2JF",
      "lat": 53.2714848,
      "lng": -2.9206747,
      "unleaded": 134.9,
      "diesel": 146.9,
      "updated": "Thu Mar 05 2026 09:54:19 GMT+0000 (Coordinated Universal Time)",
      "distance": 6.3,
      "is_supermarket": false,
      "is_motorway": false
    },
    {
      "id": 17,
      "name": "BR Gwersyllt",
      "brand": "SPAR",
      "address": "PARKWALL SERVICE STATION, MOLD ROAD, GWERSYLLT, WREXHAM, LL11 4AH, WREXHAM, LL11 4AH",
      "lat": 53.0792616,
      "lng": -3.021987,
      "unleaded": 134.9,
      "diesel": 144.9,
      "updated": "Tue Mar 03 2026 15:00:49 GMT+0000 (Coordinated Universal Time)",
      "distance": 9.0,
      "is_supermarket": false,
      "is_motorway": false
    },
    {
      "id": 24,
      "name": "MFG STRAWBERRY",
      "brand": "BP",
      "address": "WHITBY ROUNDABOUT, ELLESMERE PORT, CH66 2PY",
      "lat": 53.256833,
      "lng": -2.909397,
      "unleaded": 134.9,
      "diesel": 146.9,
      "updated": "Thu Mar 05 2026 08:52:37 GMT+0000 (Coordinated Universal Time)",
      "distance": 6.1,
      "is_supermarket": false,
      "is_motorway": false
    },
    {
      "id": 34,
      "name": "RONTEC HOYLAKE",
      "brand": "ESSO",
      "address": "HOYLAKE, HOYLAKE, CH47 0LA",
      "lat": 53.39785,
      "lng": -3.16973,
      "unleaded": 134.9,
      "diesel": 144.9,
      "updated": "Wed Mar 04 2026 15:00:04 GMT+0000 (Coordinated Universal Time)",
      "distance": 14.2,
      "is_supermarket": false,
      "is_motorway": false
    },
    {
      "id": 5,
      "name": "MFG MORRISONS DENBIGH",
      "brand": "MORRISONS",
      "address": "SMITHFIELD ROAD, DENBIGH, LL16 3LW",
      "lat": 53.18224,
      "lng": -3.423087,
      "unleaded": 135.9,
      "diesel": 145.9,
      "updated": "Tue Mar 03 2026 17:52:50 GMT+0000 (Coordinated Universal Time)",
      "distance": 16.3,
      "is_supermarket": false,
      "is_motorway": false
    },
    {
      "id": 15,
      "name": "MFG ROWTON",
      "brand": "ESSO",
      "address": "WHITCHURCH ROAD, ROWTON, CH3 6AF",
      "lat": 53.176188,
      "lng": -2.825907,
      "unleaded": 135.9,
      "diesel": 146.9,
      "updated": "Tue Mar 03 2026 15:25:56 GMT+0000 (Coordinated Universal Time)",
      "distance": 8.9,
      "is_supermarket": false,
      "is_motorway": false
    },
    {
      "id": 28,
      "name": "STANS OF LLANGOLLEN",
      "brand": "TEXACO",
      "address": "STANS OF LLANGOLLEN, BERWYN STREET, LLANGOLLEN, LL20 8NF, LLANGOLLEN, LL20 8NF",
      "lat": 52.9688428,
      "lng": -3.171139,
      "unleaded": 135.9,
      "diesel": 145.9,
      "updated": "Mon Feb 23 2026 14:42:58 GMT+0000 (Coordinated Universal Time)",
      "distance": 17.6,
      "is_supermarket": true,
      "is_motorway": false
    },
    {
      "id": 45,
      "name": "MFG MORRISONS RHYL",
      "brand": "MORRISONS",
      "address": "MARSH ROAD, RHYL, LL18 2DF",
      "lat": 53.317314,
      "lng": -3.489098,
      "unleaded": 135.9,
      "diesel": 145.9,
      "updated": "Wed Mar 04 2026 05:39:53 GMT+0000 (Coordinated Universal Time)",
      "distance": 20.3,
      "is_supermarket": false,
      "is_motorway": false
    },
    {
      "id": 52,
      "name": "MFG WALLASEY VILLAGE",
      "brand": "BP",
      "address": "15-35 LEASOWE ROAD, WALLASEY VILLAGE, CH44 2BY",
      "lat": 53.422893,
      "lng": -3.065875,
      "unleaded": 135.9,
      "diesel": 146.9,
      "updated": "Wed Mar 04 2026 19:24:11 GMT+0000 (Coordinated Universal Time)",
      "distance": 14.8,
      "is_supermarket": false,
      "is_motorway": false
    },
    {
      "id": 67,
      "name": "SHELL WIRRAL WAY",
      "brand": "SHELL",
      "address": "413 BOROUGH ROAD, BIRKENHEAD, CH42 0HA",
      "lat": 53.384042,
      "lng": -3.032912,
      "unleaded": 135.9,
      "diesel": 146.9,
      "updated": "Tue Mar 03 2026 17:00:04 GMT+0000 (Coordinated Universal Time)",
      "distance": 12.1,
      "is_supermarket": false,
      "is_motorway": false
    },
    {
      "id": 71,
      "name": "Lobitos",
      "brand": "ESSO",
      "address": "LOBITOS LTD, GWESPYR, TREFFYNNON, CH8 9JS, TREFFYNNON, CH8 9JS",
      "lat": 53.342343,
      "lng": -3.3371063,
      "unleaded": 135.9,
      "diesel": 145.9,
      "updated": "Thu Feb 12 2026 14:20:23 GMT+0000 (Coordinated Universal Time)",
      "distance": 15.6,
      "is_supermarket": false,
      "is_motorway": false
    },
    {
      "id": 4,
      "name": "SHELL CO-OP WREXHAM",
      "brand": "SHELL",
      "address": "MOLD ROAD, WREXHAM, LL11 2AF",
      "lat": 53.051908,
      "lng": -3.006356,
      "unleaded": 136.9,
      "diesel": 147.9,
      "updated": "Tue Mar 03 2026 17:58:47 GMT+0000 (Coordinated Universal Time)",
      "distance": 10.9,
      "is_supermarket": false,
      "is_motorway": false
    },
    {
      "id": 9,
      "name": "MFG GREASBY",
      "brand": "ESSO",
      "address": "GREASBY ROAD, GREASBY  WIRRAL, CH49 2PF",
      "lat": 53.379848,
      "lng": -3.116135,
      "unleaded": 136.9,
      "diesel": 143.9,
      "updated": "Wed Mar 04 2026 20:26:28 GMT+0000 (Coordinated Universal Time)",
      "distance": 12.3,
      "is_supermarket": false,
      "is_motorway": false
    },
    {
      "id": 11,
      "name": "CASTLE VIEW",
      "brand": "TEXACO",
      "address": "RHYL ROAD, DENBIGH, LL16 5SU",
      "lat": 53.1912,
      "lng": -3.40882,
      "unleaded": 136.9,
      "diesel": 146.9,
      "updated": "Wed Mar 04 2026 13:34:01 GMT+0000 (Coordinated Universal Time)",
      "distance": 15.6,
      "is_supermarket": false,
      "is_motorway": false
    },
    {
      "id": 27,
      "name": "ASDA RHYL SUPERSTORE",
      "brand": "ASDA",
      "address": "ST ASAPH AVENUE NORTH, KINMEL BAY, RHYL, LL18 5EQ",
      "lat": 53.31088,
      "lng": -3.5214,
      "unleaded": 136.9,
      "diesel": 148.9,
      "updated": "Wed Mar 04 2026 15:29:31 GMT+0000 (Coordinated Universal Time)",
      "distance": 21.4,
      "is_supermarket": false,
      "is_motorway": false
    },
    {
      "id": 29,
      "name": "Ruabon Park Service Station",
      "brand": "RUABON PARK SERVICE STATION",
      "address": "RUABON PARK SERVICE STATION, JAMES PARK WAY, RUABON, WREXHAM, LL14 6EQ, WREXHAM, LL14 6EQ",
      "lat": 52.9833637,
      "lng": -3.0453473,
      "unleaded": 136.9,
      "diesel": 145.9,
      "updated": "Wed Feb 25 2026 16:13:16 GMT+0000 (Coordinated Universal Time)",
      "distance": 15.6,
      "is_supermarket": false,
      "is_motorway": false
    },
    {
      "id": 42,
      "name": "HILLCREST MOTOR CO LTD",
      "brand": "GULF",
      "address": "Hillcres Motor Co Ltd, HOLYWELL, CH8 7SJ",
      "lat": 53.26136,
      "lng": -3.20879,
      "unleaded": 136.9,
      "diesel": 146.9,
      "updated": "Wed Mar 04 2026 14:46:36 GMT+0000 (Coordinated Universal Time)",
      "distance": 8.1,
      "is_supermarket": true,
      "is_motorway": false
    },
    {
      "id": 53,
      "name": "SAINSBURYS RHYL",
      "brand": "SAINSBURY'S",
      "address": "RHYL ROAD, RHUDDLAN, RHYL, LL18 2TP",
      "lat": 53.30371,
      "lng": -3.46769,
      "unleaded": 136.9,
      "diesel": 149.9,
      "updated": "Wed Mar 04 2026 16:11:32 GMT+0000 (Coordinated Universal Time)",
      "distance": 19.1,
      "is_supermarket": false,
      "is_motorway": false
    },
    {
      "id": 56,
      "name": "MOLD SUPERSTORE - PETROL FILLING STATION",
      "brand": "TESCO",
      "address": "PONTERWYL, YR WYDDGRUG, CH7 1UB",
      "lat": 53.16708,
      "lng": -3.13754,
      "unleaded": 136.9,
      "diesel": 145.9,
      "updated": "Wed Mar 04 2026 16:21:26 GMT+0000 (Coordinated Universal Time)",
      "distance": 5.2,
      "is_supermarket": false,
      "is_motorway": false
    },
    {
      "id": 21,
      "name": "PRESTATYN SUPERSTORE - PETROL FILLING STATION",
      "brand": "TESCO",
      "address": "TESCO STORES, PRESTATYN SHOPPING PARK, PRESTATYN, LL19 9BJ",
      "lat": 53.3366,
      "lng": -3.40236,
      "unleaded": 137.9,
      "diesel": 146.9,
      "updated": "Wed Mar 04 2026 16:57:07 GMT+0000 (Coordinated Universal Time)",
      "distance": 17.6,
      "is_supermarket": false,
      "is_motorway": false
    },
    {
      "id": 30,
      "name": "RONTEC RUABON",
      "brand": "ESSO",
      "address": "RUABON BY PASS, WREXHAM, LL14 6YY",
      "lat": 52.99368,
      "lng": -3.03119,
      "unleaded": 137.9,
      "diesel": 146.9,
      "updated": "Wed Mar 04 2026 14:07:12 GMT+0000 (Coordinated Universal Time)",
      "distance": 14.9,
      "is_supermarket": false,
      "is_motorway": false
    },
    {
      "id": 31,
      "name": "RONTEC WREXHAM",
      "brand": "BP",
      "address": "WREXHAM ROAD, JOHNSTOWN, WREXHAM, LL14 1PA",
      "lat": 53.01205,
      "lng": -3.04318,
      "unleaded": 137.9,
      "diesel": 146.9,
      "updated": "Wed Mar 04 2026 14:10:54 GMT+0000 (Coordinated Universal Time)",
      "distance": 13.6,
      "is_supermarket": false,
      "is_motorway": false
    },
    {
      "id": 32,
      "name": "FERDI'S LOCAL",
      "brand": "FERDI'S LOCAL",
      "address": "FERDI'S LOCAL, 43-44, SALOP ROAD, OVERTON, WREXHAM, LL13 0EH, WREXHAM, LL13 0EH",
      "lat": 52.968534,
      "lng": -2.9339477,
      "unleaded": 137.9,
      "diesel": 146.9,
      "updated": "Wed Mar 04 2026 11:52:53 GMT+0000 (Coordinated Universal Time)",
      "distance": 17.1,
      "is_supermarket": true,
      "is_motorway": false
    },
    {
      "id": 35,
      "name": "Dobshill Service Station",
      "brand": "DOBSHILL SERVICE STATION",
      "address": "DOBSHILL SERVICE STATION, CHESTER ROAD, DOBSHILL, DEESIDE, CH5 3LZ, DEESIDE, CH5 3LZ",
      "lat": 53.1636207,
      "lng": -3.039481,
      "unleaded": 137.9,
      "diesel": 147.9,
      "updated": "Wed Mar 04 2026 14:20:11 GMT+0000 (Coordinated Universal Time)",
      "distance": 3.1,
      "is_supermarket": false,
      "is_motorway": false
    },
    {
      "id": 46,
      "name": "SHELL LITTLE WAITROSE HINDERTON",
      "brand": "SHELL",
      "address": "CHESTER HIGH ROAD, NESTON, CH64 7TA",
      "lat": 53.294253,
      "lng": -3.042575,
      "unleaded": 137.9,
      "diesel": 147.9,
      "updated": "Tue Mar 03 2026 17:09:41 GMT+0000 (Coordinated Universal Time)",
      "distance": 5.9,
      "is_supermarket": false,
      "is_motorway": false
    },
    {
      "id": 48,
      "name": "BR Flint",
      "brand": "SPAR",
      "address": "211A, CHESTER ROAD, OAKENHOLT, Y FFLINT, CH6 5DZ, Y FFLINT, CH6 5DZ",
      "lat": 53.2443473,
      "lng": -3.1222575,
      "unleaded": 137.9,
      "diesel": 148.9,
      "updated": "Tue Mar 03 2026 10:38:19 GMT+0000 (Coordinated Universal Time)",
      "distance": 4.4,
      "is_supermarket": false,
      "is_motorway": false
    },
    {
      "id": 54,
      "name": "MFG COLESHILL",
      "brand": "SHELL",
      "address": "HOLYWELL ROAD, FLINT, CH6 5RR",
      "lat": 53.253768,
      "lng": -3.14176,
      "unleaded": 137.9,
      "diesel": 148.9,
      "updated": "Tue Mar 03 2026 16:01:08 GMT+0000 (Coordinated Universal Time)",
      "distance": 5.5,
      "is_supermarket": false,
      "is_motorway": false
    },
    {
      "id": 65,
      "name": "RUTHIN",
      "brand": "TEXACO",
      "address": "PARK ROAD, RUTHIN, LL151NB",
      "lat": 53.1134,
      "lng": -3.31576,
      "unleaded": 137.9,
      "diesel": 146.9,
      "updated": "Wed Mar 04 2026 13:34:51 GMT+0000 (Coordinated Universal Time)",
      "distance": 13.4,
      "is_supermarket": false,
      "is_motorway": false
    },
    {
      "id": 68,
      "name": "SHELL HOOLE ROAD",
      "brand": "SHELL",
      "address": "HOOLE ROAD, CHESTER, CH2 3NH",
      "lat": 53.199234,
      "lng": -2.878935,
      "unleaded": 137.9,
      "diesel": 149.9,
      "updated": "Tue Mar 03 2026 17:29:21 GMT+0000 (Coordinated Universal Time)",
      "distance": 6.4,
      "is_supermarket": false,
      "is_motorway": false
    },
    {
      "id": 69,
      "name": "SHELL MERSEY VIEW",
      "brand": "SHELL",
      "address": "STATION ROAD, ELLESMERE PORT, CH65 4AX",
      "lat": 53.284662,
      "lng": -2.89441,
      "unleaded": 137.9,
      "diesel": 149.9,
      "updated": "Tue Mar 03 2026 16:59:34 GMT+0000 (Coordinated Universal Time)",
      "distance": 7.8,
      "is_supermarket": false,
      "is_motorway": false
    },
    {
      "id": 74,
      "name": "MFG PRESTATYN",
      "brand": "BP",
      "address": "MARINE ROAD, PRESTATYN, LL19 7HA",
      "lat": 53.3376,
      "lng": -3.40742,
      "unleaded": 137.9,
      "diesel": 148.9,
      "updated": "Tue Mar 03 2026 23:41:22 GMT+0000 (Coordinated Universal Time)",
      "distance": 17.8,
      "is_supermarket": false,
      "is_motorway": false
    },
    {
      "id": 13,
      "name": "SHELL CHESTER",
      "brand": "SHELL",
      "address": "TARVIN ROAD, CHESTER, CH3 5NJ",
      "lat": 53.193526,
      "lng": -2.856604,
      "unleaded": 138.9,
      "diesel": 150.9,
      "updated": "Tue Mar 03 2026 17:00:10 GMT+0000 (Coordinated Universal Time)",
      "distance": 7.4,
      "is_supermarket": false,
      "is_motorway": false
    },
    {
      "id": 64,
      "name": "SHELL UPTON",
      "brand": "SHELL",
      "address": "ARROWE PARK ROAD, WIRRAL, CH49 0UE",
      "lat": 53.381566,
      "lng": -3.09902,
      "unleaded": 138.9,
      "diesel": 146.9,
      "updated": "Wed Mar 04 2026 13:08:05 GMT+0000 (Coordinated Universal Time)",
      "distance": 12.2,
      "is_supermarket": false,
      "is_motorway": false
    },
    {
      "id": 40,
      "name": "Ellesmere Port Service Station",
      "brand": "ELLESMERE PORT SERVICE STATION",
      "address": "ELLESMERE PORT SERVICE STATION, JACKS WOOD AVENUE, ELLESMERE PORT, CH65 3AA, ELLESMERE PORT, CH65 3AA",
      "lat": 53.2898073,
      "lng": -2.9077945,
      "unleaded": 139.9,
      "diesel": 149.9,
      "updated": "Wed Mar 04 2026 14:16:29 GMT+0000 (Coordinated Universal Time)",
      "distance": 7.6,
      "is_supermarket": false,
      "is_motorway": false
    },
    {
      "id": 47,
      "name": "SHELL CO-OP MOLD",
      "brand": "SHELL",
      "address": "CHESTER ROAD, MOLD, CH7 6LQ",
      "lat": 53.181156,
      "lng": -3.111588,
      "unleaded": 139.9,
      "diesel": 152.9,
      "updated": "Tue Mar 03 2026 17:03:01 GMT+0000 (Coordinated Universal Time)",
      "distance": 3.8,
      "is_supermarket": false,
      "is_motorway": false
    },
    {
      "id": 58,
      "name": "SHELL GAYTON",
      "brand": "SHELL",
      "address": "CHESTER ROAD, WIRRAL, MERSEYSIDE, CH60 3RY",
      "lat": 53.322022,
      "lng": -3.084409,
      "unleaded": 139.9,
      "diesel": 147.9,
      "updated": "Tue Mar 03 2026 17:12:43 GMT+0000 (Coordinated Universal Time)",
      "distance": 8.1,
      "is_supermarket": false,
      "is_motorway": false
    },
    {
      "id": 6,
      "name": "ASCONA HOLYWELL SERVICE STATION",
      "brand": "VALERO",
      "address": "HOLWAY ROAD, HOLYWELL, CH8 7LQ",
      "lat": 53.279441,
      "lng": -3.2410974,
      "unleaded": 140.0,
      "diesel": 150.0,
      "updated": "Wed Mar 04 2026 12:55:09 GMT+0000 (Coordinated Universal Time)",
      "distance": 9.9,
      "is_supermarket": false,
      "is_motorway": false
    },
    {
      "id": 57,
      "name": "Greenacre Garage",
      "brand": "GREENACRE GARAGE",
      "address": "GREENACRE GARAGE, CHURCH STREET, TARVIN, CHESTER, CH3 8NA, CHESTER, CH3 8NA",
      "lat": 53.1951588,
      "lng": -2.7628614,
      "unleaded": 142.9,
      "diesel": 156.9,
      "updated": "Wed Mar 04 2026 12:23:12 GMT+0000 (Coordinated Universal Time)",
      "distance": 11.2,
      "is_supermarket": true,
      "is_motorway": false
    },
    {
      "id": 23,
      "name": "SHELL NORTHOP",
      "brand": "SHELL",
      "address": "A55, MOLD, CH7 6HB",
      "lat": 53.192913,
      "lng": -3.081794,
      "unleaded": 144.9,
      "diesel": 156.9,
      "updated": "Wed Mar 04 2026 12:59:44 GMT+0000 (Coordinated Universal Time)",
      "distance": 2.3,
      "is_supermarket": false,
      "is_motorway": false
    },
    {
      "id": 73,
      "name": "BR Buckley",
      "brand": "SPAR",
      "address": "72, MOLD ROAD, BUCKLEY, CH7 2NJ, BUCKLEY, CH7 2NJ",
      "lat": 53.1685643,
      "lng": -3.0885872,
      "unleaded": 145.9,
      "diesel": null,
      "updated": "Tue Mar 03 2026 14:54:10 GMT+0000 (Coordinated Universal Time)",
      "distance": 3.6,
      "is_supermarket": false,
      "is_motorway": false
    },
    {
      "id": 33,
      "name": "Dyffryn Service Station",
      "brand": "ESSO",
      "address": "DYFFRYN SERVICE STATION, DENBIGH ROAD, RUTHIN, LL15 1PE, RUTHIN, LL15 1PE",
      "lat": 53.1167433,
      "lng": -3.3249443,
      "unleaded": 154.9,
      "diesel": 144.9,
      "updated": "Mon Feb 02 2026 07:17:11 GMT+0000 (Coordinated Universal Time)",
      "distance": 13.7,
      "is_supermarket": false,
      "is_motorway": false
    },
    {
      "id": 44,
      "name": "SHELL HAPSFORD MWSA",
      "brand": "SHELL",
      "address": "JUNCTION 14 M56, HAPSFORD, CH2 4QZ",
      "lat": 53.268277,
      "lng": -2.801322,
      "unleaded": 158.9,
      "diesel": 171.9,
      "updated": "Tue Mar 03 2026 17:18:46 GMT+0000 (Coordinated Universal Time)",
      "distance": 10.4,
      "is_supermarket": false,
      "is_motorway": true
    }
  ]
}