{
  "nationalAvg": {
    "unleaded": 140.5,
    "diesel": 159.1
  },
  "lastUpdated": "2026-03-11T21:54:34.943193+00:00",
  "stationCount": 65,
  "stations": [
    {
      "name": "Barnhills of Broxton",
      "brand": "GULF",
      "address": "BROXTON GARAGE, WHITCHURCH ROAD, BROXTON, CHESTER, CH3 9JR, CHESTER, CH3 9JR",
      "lat": 53.084759,
      "lng": -2.7783339,
      "distance": 13.6,
      "is_supermarket": true,
      "is_motorway": false,
      "unleaded": 130.9,
      "diesel": 138.9,
      "updated": "2026-01-16T10:29:42.000Z",
      "id": 65
    },
    {
      "name": "COSTCO WHOLESALE CHESTER",
      "brand": "COSTCO WHOLESALE",
      "address": "DUNKIRK TRADING ESTATE, CHESTER GATES, CHESTER, CHESTER, CH1 6LT",
      "lat": 53.24496,
      "lng": -2.93034,
      "distance": 4.9,
      "is_supermarket": false,
      "is_motorway": false,
      "unleaded": 132.9,
      "diesel": 150.9,
      "updated": "2026-03-11T18:00:39.665Z",
      "id": 52
    },
    {
      "name": "MFG MORRISONS SALTNEY",
      "brand": "MORRISONS",
      "address": "HIGH STREET, SALTNEY, CH4 8RU",
      "lat": 53.178287,
      "lng": -2.935342,
      "distance": 4.6,
      "is_supermarket": false,
      "is_motorway": false,
      "unleaded": 134.9,
      "diesel": 153.9,
      "updated": "2026-03-11T21:12:34.974Z",
      "id": 20
    },
    {
      "name": "ASDA WREXHAM SUPERSTORE",
      "brand": "ASDA",
      "address": "HOLT ROAD, WREXHAM, LL13 8HL",
      "lat": 53.048933,
      "lng": -2.9880729,
      "distance": 11.2,
      "is_supermarket": false,
      "is_motorway": false,
      "unleaded": 135.7,
      "diesel": 155.7,
      "updated": "2026-03-11T16:54:47.724Z",
      "id": 37
    },
    {
      "name": "ASDA QUEENSFERRY",
      "brand": "ASDA",
      "address": "ASTON ROAD, QUEENSFERRY, CH5 1TP",
      "lat": 53.2049518,
      "lng": -3.0265271,
      "distance": 0.4,
      "is_supermarket": false,
      "is_motorway": false,
      "unleaded": 135.9,
      "diesel": 155.9,
      "updated": "2026-03-11T16:47:49.317Z",
      "id": 46
    },
    {
      "name": "ASDA ARROWE PARK SUPERSTORE",
      "brand": "ASDA",
      "address": "WOODCHURCH ROAD, BIRKENHEAD, CH49 5PD",
      "lat": 53.3700696,
      "lng": -3.0784032,
      "distance": 11.3,
      "is_supermarket": false,
      "is_motorway": false,
      "unleaded": 135.9,
      "diesel": 155.9,
      "updated": "2026-03-11T16:56:31.019Z",
      "id": 57
    },
    {
      "name": "ASDA BROMBOROUGH SUPERSTORE",
      "brand": "ASDA",
      "address": "WELTON ROAD - CROFT BUSINESS PARK, BROMBOROUGH, CH62 3QP",
      "lat": 53.3406587,
      "lng": -2.9764509,
      "distance": 9.4,
      "is_supermarket": false,
      "is_motorway": false,
      "unleaded": 135.9,
      "diesel": 155.7,
      "updated": "2026-03-11T13:49:47.137Z",
      "id": 64
    },
    {
      "name": "SAINSBURYS PENSBY ROAD THINGWALL",
      "brand": "SAINSBURY'S",
      "address": "PENSBY ROAD, WIRRAL, CH61 7UB",
      "lat": 53.35295,
      "lng": -3.09298,
      "distance": 10.3,
      "is_supermarket": false,
      "is_motorway": false,
      "unleaded": 136.9,
      "diesel": 153.9,
      "updated": "2026-03-10T22:57:24.011Z",
      "id": 1
    },
    {
      "name": "MFG MORRISONS WEST KIRBY",
      "brand": "MORRISONS",
      "address": "ORRYSDALE ROAD, WEST KIRBY, CH48 4HX",
      "lat": 53.374111,
      "lng": -3.181775,
      "distance": 13.0,
      "is_supermarket": false,
      "is_motorway": false,
      "unleaded": 136.9,
      "diesel": 153.9,
      "updated": "2026-03-11T20:57:17.428Z",
      "id": 2
    },
    {
      "name": "MFG MORRISONS WREXHAM",
      "brand": "MORRISONS",
      "address": "RUTHIN ROAD/CENTENARY ROAD, WREXHAM, LL13 7TU",
      "lat": 53.043351,
      "lng": -3.004505,
      "distance": 11.5,
      "is_supermarket": false,
      "is_motorway": false,
      "unleaded": 136.9,
      "diesel": 153.9,
      "updated": "2026-03-11T21:07:48.286Z",
      "id": 8
    },
    {
      "name": "SAINSBURYS CHESTER",
      "brand": "SAINSBURY'S",
      "address": "CALDY VALLEY ROAD, GREAT BOUGHTON, CHESTER, CH3 5QJ",
      "lat": 53.18467,
      "lng": -2.85543,
      "distance": 7.5,
      "is_supermarket": false,
      "is_motorway": false,
      "unleaded": 136.9,
      "diesel": 152.9,
      "updated": "2026-03-10T22:29:25.985Z",
      "id": 10
    },
    {
      "name": "MFG BEBINGTON",
      "brand": "TEXACO",
      "address": "26 OLD CHESTER ROAD, BEBINGTON, CH63 7LQ",
      "lat": 53.359963,
      "lng": -3.006007,
      "distance": 10.5,
      "is_supermarket": false,
      "is_motorway": false,
      "unleaded": 136.9,
      "diesel": 152.9,
      "updated": "2026-03-11T21:15:28.504Z",
      "id": 12
    },
    {
      "name": "MFG MORRISONS CHESTER LIVERPOOL ROAD",
      "brand": "MORRISONS",
      "address": "LIVERPOOL ROAD, CHESTER, CH2 1AU",
      "lat": 53.209038,
      "lng": -2.894566,
      "distance": 5.7,
      "is_supermarket": false,
      "is_motorway": false,
      "unleaded": 136.9,
      "diesel": 155.9,
      "updated": "2026-03-11T19:57:39.917Z",
      "id": 14
    },
    {
      "name": "SAINSBURYS ELLESMERE PORT",
      "brand": "SAINSBURY'S",
      "address": "KINSEY ROAD, ELLESMERE PORT, CH65 9HN",
      "lat": 53.26233,
      "lng": -2.88042,
      "distance": 7.3,
      "is_supermarket": false,
      "is_motorway": false,
      "unleaded": 136.9,
      "diesel": 152.9,
      "updated": "2026-03-10T21:52:03.554Z",
      "id": 16
    },
    {
      "name": "RONTEC BEBINGTON",
      "brand": "BP",
      "address": "BROMBOROUGH ROAD, BEBINGTON, CH63 7RD",
      "lat": 53.34781,
      "lng": -2.99834,
      "distance": 9.7,
      "is_supermarket": false,
      "is_motorway": false,
      "unleaded": 136.9,
      "diesel": 156.9,
      "updated": "2026-03-10T11:57:19.121Z",
      "id": 56
    },
    {
      "name": "ASDA LISCARD SUPERSTORE",
      "brand": "ASDA",
      "address": "SEA VIEW ROAD, WALLASEY, CH45 4NZ",
      "lat": 53.4242714,
      "lng": -3.049059,
      "distance": 14.9,
      "is_supermarket": false,
      "is_motorway": false,
      "unleaded": 136.9,
      "diesel": 155.9,
      "updated": "2026-03-11T17:04:34.392Z",
      "id": 61
    },
    {
      "name": "SAINSBURYS UPTON",
      "brand": "SAINSBURY'S",
      "address": "UPTON BY PASS, WIRRAL, CH49 6QG",
      "lat": 53.37986,
      "lng": -3.09998,
      "distance": 12.1,
      "is_supermarket": false,
      "is_motorway": false,
      "unleaded": 138.9,
      "diesel": 151.9,
      "updated": "2026-03-10T21:49:31.502Z",
      "id": 22
    },
    {
      "name": "BP HARVEST ENERGY LAIRD STREET",
      "brand": "BP HARVEST ENERGY",
      "address": "LAIRD STREET, BIRKENHEAD, CH41 7AJ",
      "lat": 53.4007873,
      "lng": -3.0556847,
      "distance": 13.3,
      "is_supermarket": false,
      "is_motorway": false,
      "unleaded": 138.9,
      "diesel": 159.9,
      "updated": "2026-03-09T09:50:45.994Z",
      "id": 25
    },
    {
      "name": "RONTEC HOYLAKE",
      "brand": "ESSO",
      "address": "HOYLAKE, HOYLAKE, CH47 0LA",
      "lat": 53.39785,
      "lng": -3.16973,
      "distance": 14.2,
      "is_supermarket": false,
      "is_motorway": false,
      "unleaded": 138.9,
      "diesel": 158.9,
      "updated": "2026-03-11T17:12:11.408Z",
      "id": 43
    },
    {
      "name": "SPITAL SF CONNECT",
      "brand": "BP",
      "address": "BRIMSTAGE ROAD, WIRRAL, CH63 3EL",
      "lat": 53.34132,
      "lng": -3.00749,
      "distance": 9.2,
      "is_supermarket": false,
      "is_motorway": false,
      "unleaded": 138.9,
      "diesel": 156.9,
      "updated": "2026-03-11T11:09:24.492Z",
      "id": 55
    },
    {
      "name": "H W Oultram & Co",
      "brand": "OIL 4 WALES",
      "address": "H W OULTRAM & CO, NEWBRIDGE FARM & FILLING STATION, HOLYWELL ROAD, EWLOE, DEESIDE, CH5 3BS, DEESIDE, CH5 3BS",
      "lat": 53.1959232,
      "lng": -3.0636485,
      "distance": 1.6,
      "is_supermarket": false,
      "is_motorway": false,
      "unleaded": 139.9,
      "diesel": 158.9,
      "updated": "2026-03-09T16:10:51.177Z",
      "id": 3
    },
    {
      "name": "BP HARVEST ENERGY OVERPOOL",
      "brand": "BP HARVEST ENERGY",
      "address": "OVERPOOL ROAD, ELLESMERE PORT, CH66 2JF",
      "lat": 53.2714848,
      "lng": -2.9206747,
      "distance": 6.3,
      "is_supermarket": false,
      "is_motorway": false,
      "unleaded": 139.9,
      "diesel": 169.9,
      "updated": "2026-03-10T10:55:49.720Z",
      "id": 7
    },
    {
      "name": "MFG GREASBY",
      "brand": "ESSO",
      "address": "GREASBY ROAD, GREASBY  WIRRAL, CH49 2PF",
      "lat": 53.379848,
      "lng": -3.116135,
      "distance": 12.3,
      "is_supermarket": false,
      "is_motorway": false,
      "unleaded": 139.9,
      "diesel": 155.9,
      "updated": "2026-03-11T20:20:26.212Z",
      "id": 9
    },
    {
      "name": "MFG LISCARD",
      "brand": "SHELL",
      "address": "LLOYDS CORNER / LISCARD ROAD, WALLASEY, CH44 9AD",
      "lat": 53.414368,
      "lng": -3.02869,
      "distance": 14.2,
      "is_supermarket": false,
      "is_motorway": false,
      "unleaded": 139.9,
      "diesel": 165.9,
      "updated": "2026-03-11T21:09:15.263Z",
      "id": 19
    },
    {
      "name": "MFG STRAWBERRY",
      "brand": "BP",
      "address": "WHITBY ROUNDABOUT, ELLESMERE PORT, CH66 2PY",
      "lat": 53.256833,
      "lng": -2.909397,
      "distance": 6.1,
      "is_supermarket": false,
      "is_motorway": false,
      "unleaded": 139.9,
      "diesel": 165.9,
      "updated": "2026-03-11T21:06:04.148Z",
      "id": 24
    },
    {
      "name": "Plas Acton Fuel Station",
      "brand": "GULF",
      "address": "PLAS ACTON SERVICE STATION, PLAS ACTON GARAGE, 282, CHESTER ROAD, WRECSAM, LL12 8DU, WRECSAM, LL12 8DU",
      "lat": 53.0701313,
      "lng": -2.9897412,
      "distance": 9.8,
      "is_supermarket": false,
      "is_motorway": false,
      "unleaded": 139.9,
      "diesel": 159.9,
      "updated": "2026-03-09T13:58:25.292Z",
      "id": 26
    },
    {
      "name": "ASDA RHYL SUPERSTORE",
      "brand": "ASDA",
      "address": "ST ASAPH AVENUE NORTH, KINMEL BAY, RHYL, LL18 5EQ",
      "lat": 53.31088,
      "lng": -3.5214,
      "distance": 21.4,
      "is_supermarket": false,
      "is_motorway": false,
      "unleaded": 139.9,
      "diesel": 157.9,
      "updated": "2026-03-11T18:42:59.442Z",
      "id": 29
    },
    {
      "name": "Gordale Service Station",
      "brand": "GORDALE SERVICE STATION",
      "address": "GORDALE SERVICE STATION, CHESTER HIGH ROAD, BURTON, NESTON, CH64 8TF, NESTON, CH64 8TF",
      "lat": 53.2741984,
      "lng": -3.0014083,
      "distance": 4.7,
      "is_supermarket": false,
      "is_motorway": false,
      "unleaded": 139.9,
      "diesel": 169.9,
      "updated": "2026-03-11T09:33:04.654Z",
      "id": 54
    },
    {
      "name": "Ellesmere Port Service Station",
      "brand": "ELLESMERE PORT SERVICE STATION",
      "address": "ELLESMERE PORT SERVICE STATION, JACKS WOOD AVENUE, ELLESMERE PORT, CH65 3AA, ELLESMERE PORT, CH65 3AA",
      "lat": 53.2898073,
      "lng": -2.9077945,
      "distance": 7.6,
      "is_supermarket": false,
      "is_motorway": false,
      "unleaded": 139.9,
      "diesel": 155.9,
      "updated": "2026-03-09T12:44:44.325Z",
      "id": 63
    },
    {
      "name": "MFG MORRISONS DENBIGH",
      "brand": "MORRISONS",
      "address": "SMITHFIELD ROAD, DENBIGH, LL16 3LW",
      "lat": 53.18224,
      "lng": -3.423087,
      "distance": 16.3,
      "is_supermarket": false,
      "is_motorway": false,
      "unleaded": 140.9,
      "diesel": 159.9,
      "updated": "2026-03-11T21:02:07.479Z",
      "id": 5
    },
    {
      "name": "EG PONTBLYDDYN PFS",
      "brand": "EG ON THE MOVE",
      "address": "WREXHAM ROAD, MOLD, CH7 4HL",
      "lat": 53.137161,
      "lng": -3.083567,
      "distance": 5.4,
      "is_supermarket": false,
      "is_motorway": false,
      "unleaded": 141.7,
      "diesel": 161.7,
      "updated": "2026-03-11T16:28:24.724Z",
      "id": 44
    },
    {
      "name": "MFG ROWTON",
      "brand": "ESSO",
      "address": "WHITCHURCH ROAD, ROWTON, CH3 6AF",
      "lat": 53.176188,
      "lng": -2.825907,
      "distance": 8.9,
      "is_supermarket": false,
      "is_motorway": false,
      "unleaded": 141.9,
      "diesel": 157.9,
      "updated": "2026-03-11T17:56:58.957Z",
      "id": 15
    },
    {
      "name": "BR Gwersyllt",
      "brand": "SPAR",
      "address": "PARKWALL SERVICE STATION, MOLD ROAD, GWERSYLLT, WREXHAM, LL11 4AH, WREXHAM, LL11 4AH",
      "lat": 53.0792616,
      "lng": -3.021987,
      "distance": 9.0,
      "is_supermarket": false,
      "is_motorway": false,
      "unleaded": 141.9,
      "diesel": 155.9,
      "updated": "2026-03-11T11:57:10.016Z",
      "id": 17
    },
    {
      "name": "PRESTATYN SUPERSTORE - PETROL FILLING STATION",
      "brand": "TESCO",
      "address": "TESCO STORES, PRESTATYN SHOPPING PARK, PRESTATYN, LL19 9BJ",
      "lat": 53.3366,
      "lng": -3.40236,
      "distance": 17.6,
      "is_supermarket": false,
      "is_motorway": false,
      "unleaded": 141.9,
      "diesel": 158.9,
      "updated": "2026-03-11T17:45:39.576Z",
      "id": 21
    },
    {
      "name": "RONTEC RUABON",
      "brand": "ESSO",
      "address": "RUABON BY PASS, WREXHAM, LL14 6YY",
      "lat": 52.99368,
      "lng": -3.03119,
      "distance": 14.9,
      "is_supermarket": false,
      "is_motorway": false,
      "unleaded": 141.9,
      "diesel": 157.9,
      "updated": "2026-03-11T14:20:34.254Z",
      "id": 32
    },
    {
      "name": "RONTEC WREXHAM",
      "brand": "BP",
      "address": "WREXHAM ROAD, JOHNSTOWN, WREXHAM, LL14 1PA",
      "lat": 53.01205,
      "lng": -3.04318,
      "distance": 13.6,
      "is_supermarket": false,
      "is_motorway": false,
      "unleaded": 141.9,
      "diesel": 157.9,
      "updated": "2026-03-11T14:47:21.615Z",
      "id": 33
    },
    {
      "name": "ASDA QUAY EXPRESS PETROL",
      "brand": "ESSO",
      "address": "CHURCH STREET, DEESIDE, CH5 4AS",
      "lat": 53.22449,
      "lng": -3.071442,
      "distance": 1.9,
      "is_supermarket": false,
      "is_motorway": false,
      "unleaded": 141.9,
      "diesel": 158.9,
      "updated": "2026-03-11T14:14:59.640Z",
      "id": 47
    },
    {
      "name": "ASDA PARKGATE EXPRESS PETROL",
      "brand": "ESSO",
      "address": "PARKGATE ROAD, CHESTER, CH1 4BE",
      "lat": 53.2043,
      "lng": -2.9023,
      "distance": 5.4,
      "is_supermarket": false,
      "is_motorway": false,
      "unleaded": 141.9,
      "diesel": 158.9,
      "updated": "2026-03-11T14:03:11.835Z",
      "id": 50
    },
    {
      "name": "ASDA HANDBRIDGE EXPRESS PETROL",
      "brand": "ASDA EXPRESS",
      "address": "QUEEN'S PARK ROAD, CHESTER, CH4 7JF",
      "lat": 53.183942,
      "lng": -2.887504,
      "distance": 6.3,
      "is_supermarket": false,
      "is_motorway": false,
      "unleaded": 141.9,
      "diesel": 158.9,
      "updated": "2026-03-11T17:48:57.054Z",
      "id": 53
    },
    {
      "name": "ASDA MORETON EXPRESS PETROL",
      "brand": "ESSO",
      "address": "157 HOYLAKE ROAD, WIRRAL, CH46 9PZ",
      "lat": 53.401,
      "lng": -3.107,
      "distance": 13.6,
      "is_supermarket": false,
      "is_motorway": false,
      "unleaded": 141.9,
      "diesel": 158.9,
      "updated": "2026-03-11T14:28:31.644Z",
      "id": 58
    },
    {
      "name": "ASDA LAIRDS EXPRESS PETROL",
      "brand": "ESSO",
      "address": "117 NEW CHESTER ROAD, BIRKENHEAD, CH41 9BW",
      "lat": 53.379868,
      "lng": -3.01265,
      "distance": 11.8,
      "is_supermarket": false,
      "is_motorway": false,
      "unleaded": 141.9,
      "diesel": 158.9,
      "updated": "2026-03-11T14:04:27.679Z",
      "id": 59
    },
    {
      "name": "ASDA GREENLANE EXPRESS PETROL",
      "brand": "ESSO",
      "address": "6 NEW CHESTER ROAD, BIRKENHEAD, CH41 9AZ",
      "lat": 53.384,
      "lng": -3.015,
      "distance": 12.1,
      "is_supermarket": false,
      "is_motorway": false,
      "unleaded": 141.9,
      "diesel": 158.9,
      "updated": "2026-03-11T14:05:53.781Z",
      "id": 60
    },
    {
      "name": "ASDA ELLESMERE PORT EXPRESS PETROL",
      "brand": "ESSO",
      "address": "118 WHITBY ROAD, ELLESMERE PORT, CH65 6TF",
      "lat": 53.278,
      "lng": -2.904,
      "distance": 7.2,
      "is_supermarket": false,
      "is_motorway": false,
      "unleaded": 141.9,
      "diesel": 158.9,
      "updated": "2026-03-11T17:54:39.061Z",
      "id": 62
    },
    {
      "name": "SHELL CO-OP WREXHAM",
      "brand": "SHELL",
      "address": "MOLD ROAD, WREXHAM, LL11 2AF",
      "lat": 53.051908,
      "lng": -3.006356,
      "distance": 10.9,
      "is_supermarket": false,
      "is_motorway": false,
      "unleaded": 142.9,
      "diesel": 156.9,
      "updated": "2026-03-11T17:56:03.024Z",
      "id": 4
    },
    {
      "name": "ASDA VALE EXPRESS PETROL",
      "brand": "ESSO",
      "address": "193 VALE ROAD, CONWY, LL18 2PH",
      "lat": 53.316,
      "lng": -3.477,
      "distance": 19.8,
      "is_supermarket": false,
      "is_motorway": false,
      "unleaded": 142.9,
      "diesel": 159.9,
      "updated": "2026-03-11T14:22:12.179Z",
      "id": 40
    },
    {
      "name": "ASDA DEESIDE EXPRESS PETROL",
      "brand": "BP",
      "address": "PARKWAY, DEESIDE, CH5 2NS",
      "lat": 53.232092,
      "lng": -3.006867,
      "distance": 1.9,
      "is_supermarket": false,
      "is_motorway": false,
      "unleaded": 142.9,
      "diesel": 171.9,
      "updated": "2026-03-11T14:08:19.835Z",
      "id": 48
    },
    {
      "name": "CASTLE VIEW",
      "brand": "TEXACO",
      "address": "RHYL ROAD, DENBIGH, LL16 5SU",
      "lat": 53.1912,
      "lng": -3.40882,
      "distance": 15.6,
      "is_supermarket": false,
      "is_motorway": false,
      "unleaded": 143.9,
      "diesel": 163.9,
      "updated": "2026-03-11T13:24:22.436Z",
      "id": 11
    },
    {
      "name": "SHELL CARLETT",
      "brand": "SHELL",
      "address": "1201 NEW CHESTER ROAD, WIRRAL, CH62 0BZ",
      "lat": 53.314799,
      "lng": -2.963826,
      "distance": 7.9,
      "is_supermarket": false,
      "is_motorway": false,
      "unleaded": 143.9,
      "diesel": 171.9,
      "updated": "2026-03-11T15:06:02.910Z",
      "id": 18
    },
    {
      "name": "ASDA COEDPOETH EXPRESS PETROL",
      "brand": "ASDA EXPRESS",
      "address": "HIGH STREET, WREXHAM, LL11 3UF",
      "lat": 53.0553979,
      "lng": -3.0743781,
      "distance": 10.7,
      "is_supermarket": false,
      "is_motorway": false,
      "unleaded": 143.9,
      "diesel": 159.9,
      "updated": "2026-03-11T17:51:05.291Z",
      "id": 35
    },
    {
      "name": "ASDA TREFFYNNON EXPRESS PETROL",
      "brand": "ESSO",
      "address": "HALKYN ROAD, FLINTSHIRE, CH8 7SG",
      "lat": 53.267,
      "lng": -3.216,
      "distance": 8.6,
      "is_supermarket": false,
      "is_motorway": false,
      "unleaded": 143.9,
      "diesel": 161.9,
      "updated": "2026-03-11T17:54:58.377Z",
      "id": 42
    },
    {
      "name": "ASDA WREXHAM ROAD EXPRESS PETROL",
      "brand": "BP",
      "address": "WREXHAM ROAD, CHESTER, CH4 9DE",
      "lat": 53.162955,
      "lng": -2.908206,
      "distance": 6.1,
      "is_supermarket": false,
      "is_motorway": false,
      "unleaded": 143.9,
      "diesel": 171.9,
      "updated": "2026-03-11T14:09:25.859Z",
      "id": 49
    },
    {
      "name": "ASCONA HOLYWELL SERVICE STATION",
      "brand": "VALERO",
      "address": "HOLWAY ROAD, HOLYWELL, CH8 7LQ",
      "lat": 53.279441,
      "lng": -3.2410974,
      "distance": 9.9,
      "is_supermarket": false,
      "is_motorway": false,
      "unleaded": 144.0,
      "diesel": 156.0,
      "updated": "2026-03-10T11:54:13.213Z",
      "id": 6
    },
    {
      "name": "SHELL CHESTER",
      "brand": "SHELL",
      "address": "TARVIN ROAD, CHESTER, CH3 5NJ",
      "lat": 53.193526,
      "lng": -2.856604,
      "distance": 7.4,
      "is_supermarket": false,
      "is_motorway": false,
      "unleaded": 144.9,
      "diesel": 161.9,
      "updated": "2026-03-10T14:34:03.016Z",
      "id": 13
    },
    {
      "name": "STANS OF LLANGOLLEN",
      "brand": "TEXACO",
      "address": "STANS OF LLANGOLLEN, BERWYN STREET, LLANGOLLEN, LL20 8NF, LLANGOLLEN, LL20 8NF",
      "lat": 52.9688428,
      "lng": -3.171139,
      "distance": 17.6,
      "is_supermarket": true,
      "is_motorway": false,
      "unleaded": 144.9,
      "diesel": 157.9,
      "updated": "2026-03-10T13:49:08.960Z",
      "id": 30
    },
    {
      "name": "Ruabon Park Service Station",
      "brand": "RUABON PARK SERVICE STATION",
      "address": "RUABON PARK SERVICE STATION, JAMES PARK WAY, RUABON, WREXHAM, LL14 6EQ, WREXHAM, LL14 6EQ",
      "lat": 52.9833637,
      "lng": -3.0453473,
      "distance": 15.6,
      "is_supermarket": false,
      "is_motorway": false,
      "unleaded": 144.9,
      "diesel": 159.9,
      "updated": "2026-02-06T14:15:53.735Z",
      "id": 31
    },
    {
      "name": "ASDA RHOSTYLLEN EXPRESS PETROL",
      "brand": "ESSO",
      "address": "WREXHAM ROAD, WREXHAM, LL14 4EJ",
      "lat": 53.027758,
      "lng": -3.029416,
      "distance": 12.5,
      "is_supermarket": false,
      "is_motorway": true,
      "unleaded": 144.9,
      "diesel": 159.9,
      "updated": "2026-03-11T14:05:57.512Z",
      "id": 34
    },
    {
      "name": "ASDA RHUDDLAN EXPRESS PETROL",
      "brand": "TEXACO",
      "address": "RHYL ROAD, RHUDDLAN, LL18 2TS",
      "lat": 53.2927362,
      "lng": -3.4638487,
      "distance": 18.7,
      "is_supermarket": false,
      "is_motorway": false,
      "unleaded": 145.9,
      "diesel": 161.9,
      "updated": "2026-03-11T17:52:54.877Z",
      "id": 39
    },
    {
      "name": "Dobshill Service Station",
      "brand": "DOBSHILL SERVICE STATION",
      "address": "DOBSHILL SERVICE STATION, CHESTER ROAD, DOBSHILL, DEESIDE, CH5 3LZ, DEESIDE, CH5 3LZ",
      "lat": 53.1636207,
      "lng": -3.039481,
      "distance": 3.1,
      "is_supermarket": false,
      "is_motorway": false,
      "unleaded": 145.9,
      "diesel": 161.9,
      "updated": "2026-03-11T14:48:42.239Z",
      "id": 45
    },
    {
      "name": "SHELL NORTHOP",
      "brand": "SHELL",
      "address": "A55, MOLD, CH7 6HB",
      "lat": 53.192913,
      "lng": -3.081794,
      "distance": 2.3,
      "is_supermarket": false,
      "is_motorway": false,
      "unleaded": 149.9,
      "diesel": 171.9,
      "updated": "2026-03-10T15:32:03.420Z",
      "id": 23
    },
    {
      "name": "FERDI'S LOCAL",
      "brand": "FERDI'S LOCAL",
      "address": "FERDI'S LOCAL, 43-44, SALOP ROAD, OVERTON, WREXHAM, LL13 0EH, WREXHAM, LL13 0EH",
      "lat": 52.968534,
      "lng": -2.9339477,
      "distance": 17.1,
      "is_supermarket": true,
      "is_motorway": false,
      "unleaded": 149.9,
      "diesel": 172.9,
      "updated": "2026-03-11T10:13:03.818Z",
      "id": 36
    },
    {
      "name": "ASDA RED ENSIGN EXPRESS PETROL",
      "brand": "BP",
      "address": "PARKGATE ROAD, CHESTER, CH1 6JS",
      "lat": 53.232995,
      "lng": -2.942376,
      "distance": 4.1,
      "is_supermarket": false,
      "is_motorway": true,
      "unleaded": 149.9,
      "diesel": 171.9,
      "updated": "2026-03-11T14:08:51.969Z",
      "id": 51
    },
    {
      "name": "ASDA KINMEL PARK WEST EXPRESS PETROL",
      "brand": "ESSO",
      "address": "A55 WESTBOUND, BODELWYDDAN, LL18 5XW",
      "lat": 53.26836,
      "lng": -3.51915,
      "distance": 20.5,
      "is_supermarket": false,
      "is_motorway": true,
      "unleaded": 151.9,
      "diesel": 166.9,
      "updated": "2026-03-11T14:14:50.714Z",
      "id": 27
    },
    {
      "name": "ASDA KINMEL PARK EAST EXPRESS PETROL",
      "brand": "ESSO",
      "address": "55 EXPRESSWAY, BODELWYDDAN, LL18 5XE",
      "lat": 53.269735,
      "lng": -3.51867,
      "distance": 20.5,
      "is_supermarket": false,
      "is_motorway": true,
      "unleaded": 151.9,
      "diesel": 166.9,
      "updated": "2026-03-11T14:13:54.325Z",
      "id": 28
    },
    {
      "name": "ASDA SINGING KETTLE S/STN EXPRESS PETROL",
      "brand": "BP",
      "address": "ST ASAPH ROAD, HOLYWELL, CH8 8RD",
      "lat": 53.274981,
      "lng": -3.292738,
      "distance": 11.7,
      "is_supermarket": false,
      "is_motorway": true,
      "unleaded": 152.9,
      "diesel": 171.9,
      "updated": "2026-03-11T13:56:46.514Z",
      "id": 41
    },
    {
      "name": "Dyffryn Service Station",
      "brand": "ESSO",
      "address": "DYFFRYN SERVICE STATION, DENBIGH ROAD, RUTHIN, LL15 1PE, RUTHIN, LL15 1PE",
      "lat": 53.1167433,
      "lng": -3.3249443,
      "distance": 13.7,
      "is_supermarket": false,
      "is_motorway": false,
      "unleaded": 156.9,
      "diesel": 159.9,
      "updated": "2026-03-10T07:31:29.762Z",
      "id": 38
    }
  ]
}