{
  "nationalAvg": {
    "unleaded": 140.2,
    "diesel": 159.2
  },
  "lastUpdated": "2026-03-12T05:00:22.644984+00:00",
  "stationCount": 99,
  "stations": [
    {
      "name": "SMITHY VIEW SERVICE STATION ACTON",
      "brand": "SMITHY VIEW SERVICE STATION ACTON",
      "address": "SMITHY VIEW SERVICE STATION, CHESTER ROAD, WRECSAM, LL12 8DY, WRECSAM, LL12 8DY",
      "lat": 53.0687749,
      "lng": -2.9908063,
      "distance": 9.8,
      "is_supermarket": false,
      "is_motorway": false,
      "unleaded": 125.9,
      "diesel": 134.9,
      "updated": "2026-02-21T10:07:39.893Z",
      "id": 80
    },
    {
      "name": "Barnhills of Broxton",
      "brand": "GULF",
      "address": "BROXTON GARAGE, WHITCHURCH ROAD, BROXTON, CHESTER, CH3 9JR, CHESTER, CH3 9JR",
      "lat": 53.084759,
      "lng": -2.7783339,
      "distance": 13.6,
      "is_supermarket": true,
      "is_motorway": false,
      "unleaded": 130.9,
      "diesel": 138.9,
      "updated": "2026-01-16T10:29:42.000Z",
      "id": 65
    },
    {
      "name": "COSTCO WHOLESALE CHESTER",
      "brand": "COSTCO WHOLESALE",
      "address": "DUNKIRK TRADING ESTATE, CHESTER GATES, CHESTER, CHESTER, CH1 6LT",
      "lat": 53.24496,
      "lng": -2.93034,
      "distance": 4.9,
      "is_supermarket": false,
      "is_motorway": false,
      "unleaded": 132.9,
      "diesel": 150.9,
      "updated": "2026-03-11T18:00:39.665Z",
      "id": 52
    },
    {
      "name": "ASDA WREXHAM SUPERSTORE",
      "brand": "ASDA",
      "address": "HOLT ROAD, WREXHAM, LL13 8HL",
      "lat": 53.048933,
      "lng": -2.9880729,
      "distance": 11.2,
      "is_supermarket": false,
      "is_motorway": false,
      "unleaded": 135.7,
      "diesel": 155.7,
      "updated": "2026-03-11T16:54:47.724Z",
      "id": 37
    },
    {
      "name": "MFG MORRISONS SALTNEY",
      "brand": "MORRISONS",
      "address": "HIGH STREET, SALTNEY, CH4 8RU",
      "lat": 53.178287,
      "lng": -2.935342,
      "distance": 4.6,
      "is_supermarket": false,
      "is_motorway": false,
      "unleaded": 135.9,
      "diesel": 155.9,
      "updated": "2026-03-12T01:12:40.896Z",
      "id": 20
    },
    {
      "name": "ASDA QUEENSFERRY",
      "brand": "ASDA",
      "address": "ASTON ROAD, QUEENSFERRY, CH5 1TP",
      "lat": 53.2049518,
      "lng": -3.0265271,
      "distance": 0.4,
      "is_supermarket": false,
      "is_motorway": false,
      "unleaded": 135.9,
      "diesel": 155.9,
      "updated": "2026-03-11T16:47:49.317Z",
      "id": 46
    },
    {
      "name": "ASDA ARROWE PARK SUPERSTORE",
      "brand": "ASDA",
      "address": "WOODCHURCH ROAD, BIRKENHEAD, CH49 5PD",
      "lat": 53.3700696,
      "lng": -3.0784032,
      "distance": 11.3,
      "is_supermarket": false,
      "is_motorway": false,
      "unleaded": 135.9,
      "diesel": 155.9,
      "updated": "2026-03-11T16:56:31.019Z",
      "id": 57
    },
    {
      "name": "ASDA BROMBOROUGH SUPERSTORE",
      "brand": "ASDA",
      "address": "WELTON ROAD - CROFT BUSINESS PARK, BROMBOROUGH, CH62 3QP",
      "lat": 53.3406587,
      "lng": -2.9764509,
      "distance": 9.4,
      "is_supermarket": false,
      "is_motorway": false,
      "unleaded": 135.9,
      "diesel": 155.7,
      "updated": "2026-03-11T13:49:47.137Z",
      "id": 64
    },
    {
      "name": "SAINSBURYS PENSBY ROAD THINGWALL",
      "brand": "SAINSBURY'S",
      "address": "PENSBY ROAD, WIRRAL, CH61 7UB",
      "lat": 53.35295,
      "lng": -3.09298,
      "distance": 10.3,
      "is_supermarket": false,
      "is_motorway": false,
      "unleaded": 136.9,
      "diesel": 155.9,
      "updated": "2026-03-11T22:55:23.752Z",
      "id": 1
    },
    {
      "name": "MFG MORRISONS WEST KIRBY",
      "brand": "MORRISONS",
      "address": "ORRYSDALE ROAD, WEST KIRBY, CH48 4HX",
      "lat": 53.374111,
      "lng": -3.181775,
      "distance": 13.0,
      "is_supermarket": false,
      "is_motorway": false,
      "unleaded": 136.9,
      "diesel": 153.9,
      "updated": "2026-03-12T04:57:27.450Z",
      "id": 2
    },
    {
      "name": "SAINSBURYS CHESTER",
      "brand": "SAINSBURY'S",
      "address": "CALDY VALLEY ROAD, GREAT BOUGHTON, CHESTER, CH3 5QJ",
      "lat": 53.18467,
      "lng": -2.85543,
      "distance": 7.5,
      "is_supermarket": false,
      "is_motorway": false,
      "unleaded": 136.9,
      "diesel": 155.9,
      "updated": "2026-03-11T22:26:30.693Z",
      "id": 10
    },
    {
      "name": "MFG BEBINGTON",
      "brand": "TEXACO",
      "address": "26 OLD CHESTER ROAD, BEBINGTON, CH63 7LQ",
      "lat": 53.359963,
      "lng": -3.006007,
      "distance": 10.5,
      "is_supermarket": false,
      "is_motorway": false,
      "unleaded": 136.9,
      "diesel": 155.9,
      "updated": "2026-03-12T01:15:40.980Z",
      "id": 12
    },
    {
      "name": "MFG MORRISONS CHESTER LIVERPOOL ROAD",
      "brand": "MORRISONS",
      "address": "LIVERPOOL ROAD, CHESTER, CH2 1AU",
      "lat": 53.209038,
      "lng": -2.894566,
      "distance": 5.7,
      "is_supermarket": false,
      "is_motorway": false,
      "unleaded": 136.9,
      "diesel": 155.9,
      "updated": "2026-03-12T03:57:48.465Z",
      "id": 14
    },
    {
      "name": "RONTEC BEBINGTON",
      "brand": "BP",
      "address": "BROMBOROUGH ROAD, BEBINGTON, CH63 7RD",
      "lat": 53.34781,
      "lng": -2.99834,
      "distance": 9.7,
      "is_supermarket": false,
      "is_motorway": false,
      "unleaded": 136.9,
      "diesel": 156.9,
      "updated": "2026-03-10T11:57:19.121Z",
      "id": 56
    },
    {
      "name": "ASDA LISCARD SUPERSTORE",
      "brand": "ASDA",
      "address": "SEA VIEW ROAD, WALLASEY, CH45 4NZ",
      "lat": 53.4242714,
      "lng": -3.049059,
      "distance": 14.9,
      "is_supermarket": false,
      "is_motorway": false,
      "unleaded": 136.9,
      "diesel": 155.9,
      "updated": "2026-03-11T17:04:34.392Z",
      "id": 61
    },
    {
      "name": "Esso - Saltney Service Station",
      "brand": "SALTNEY SERVICE STATION",
      "address": "High Street, Saltney, CH4 8SJ",
      "lat": 53.178903,
      "lng": -2.922518,
      "distance": 5.0,
      "is_supermarket": false,
      "is_motorway": false,
      "unleaded": 136.9,
      "diesel": 159.9,
      "updated": "2026-03-09T11:40:18.467Z",
      "id": 74
    },
    {
      "name": "Esso - Queensferry Service Station",
      "brand": "QUEENSFERRY SERVICE STATION",
      "address": "QUEENSFERRY SERVICE STATION, 108, CHESTER ROAD EAST, SHOTTON, DEESIDE, CH5 1QD, DEESIDE, CH5 1QD",
      "lat": 53.2088991,
      "lng": -3.0326318,
      "distance": 0.0,
      "is_supermarket": false,
      "is_motorway": false,
      "unleaded": 136.9,
      "diesel": 159.9,
      "updated": "2026-03-09T13:45:35.066Z",
      "id": 76
    },
    {
      "name": "SAINSBURYS KINGS ROAD BEBINGTON",
      "brand": "SAINSBURY'S",
      "address": "152 KINGS ROAD, BIRKENHEAD, LIVERPOOL, CH63 8PZ",
      "lat": 53.35656,
      "lng": -3.02542,
      "distance": 10.2,
      "is_supermarket": false,
      "is_motorway": false,
      "unleaded": 136.9,
      "diesel": 155.9,
      "updated": "2026-03-11T22:56:10.318Z",
      "id": 88
    },
    {
      "name": "MFG MORRISONS ELLESMERE PORT",
      "brand": "MORRISONS",
      "address": "CHESTER ROAD, WHITBY, CH65 6RU",
      "lat": 53.273606,
      "lng": -2.910218,
      "distance": 6.8,
      "is_supermarket": false,
      "is_motorway": false,
      "unleaded": 136.9,
      "diesel": 155.9,
      "updated": "2026-03-12T04:57:27.450Z",
      "id": 91
    },
    {
      "name": "MFG MORRISONS WREXHAM",
      "brand": "MORRISONS",
      "address": "RUTHIN ROAD/CENTENARY ROAD, WREXHAM, LL13 7TU",
      "lat": 53.043351,
      "lng": -3.004505,
      "distance": 11.5,
      "is_supermarket": false,
      "is_motorway": false,
      "unleaded": 137.9,
      "diesel": 155.9,
      "updated": "2026-03-12T01:07:52.577Z",
      "id": 8
    },
    {
      "name": "SAINSBURYS ELLESMERE PORT",
      "brand": "SAINSBURY'S",
      "address": "KINSEY ROAD, ELLESMERE PORT, CH65 9HN",
      "lat": 53.26233,
      "lng": -2.88042,
      "distance": 7.3,
      "is_supermarket": false,
      "is_motorway": false,
      "unleaded": 137.9,
      "diesel": 155.9,
      "updated": "2026-03-11T21:50:27.778Z",
      "id": 16
    },
    {
      "name": "BIRKENHEAD BIDSTON MOSS EXTRA - PETROL FILLING STATION",
      "brand": "TESCO",
      "address": "BIDSTON LINK ROAD, BIRKENHEAD, CH43 7AA",
      "lat": 53.40799,
      "lng": -3.07026,
      "distance": 13.8,
      "is_supermarket": false,
      "is_motorway": false,
      "unleaded": 137.9,
      "diesel": 151.9,
      "updated": "2026-03-11T18:12:42.483Z",
      "id": 68
    },
    {
      "name": "MFG BEECHLEY",
      "brand": "TEXACO",
      "address": "KINGSMILL ROAD, HIGHTOWN, LL13 8NH",
      "lat": 53.0409,
      "lng": -2.98956,
      "distance": 11.7,
      "is_supermarket": false,
      "is_motorway": false,
      "unleaded": 137.9,
      "diesel": 151.9,
      "updated": "2026-03-10T17:21:36.829Z",
      "id": 75
    },
    {
      "name": "Rhydymwyn Service Station",
      "brand": "RHYDYMWYN SERVICE STATION",
      "address": "A A S RHYDYMWYN LTD, RHYDYMWYN SERVICE STATION, DENBIGH ROAD, RHYDYMWYN, MOLD, CH7 5HE, MOLD, CH7 5HE",
      "lat": 53.1928694,
      "lng": -3.1889389,
      "distance": 6.5,
      "is_supermarket": false,
      "is_motorway": false,
      "unleaded": 137.9,
      "diesel": 159.9,
      "updated": "2026-03-11T13:44:25.138Z",
      "id": 85
    },
    {
      "name": "SAINSBURYS BIRKENHEAD",
      "brand": "SAINSBURY'S",
      "address": "342A WOODCHURCH ROAD, BIRKENHEAD, CH42 8PQ",
      "lat": 53.37472,
      "lng": -3.04765,
      "distance": 11.5,
      "is_supermarket": false,
      "is_motorway": false,
      "unleaded": 137.9,
      "diesel": 155.9,
      "updated": "2026-03-11T21:44:47.569Z",
      "id": 87
    },
    {
      "name": "SAINSBURYS UPTON",
      "brand": "SAINSBURY'S",
      "address": "UPTON BY PASS, WIRRAL, CH49 6QG",
      "lat": 53.37986,
      "lng": -3.09998,
      "distance": 12.1,
      "is_supermarket": false,
      "is_motorway": false,
      "unleaded": 138.9,
      "diesel": 153.9,
      "updated": "2026-03-11T21:52:54.005Z",
      "id": 22
    },
    {
      "name": "BP HARVEST ENERGY LAIRD STREET",
      "brand": "BP HARVEST ENERGY",
      "address": "LAIRD STREET, BIRKENHEAD, CH41 7AJ",
      "lat": 53.4007873,
      "lng": -3.0556847,
      "distance": 13.3,
      "is_supermarket": false,
      "is_motorway": false,
      "unleaded": 138.9,
      "diesel": 159.9,
      "updated": "2026-03-09T09:50:45.994Z",
      "id": 25
    },
    {
      "name": "RONTEC HOYLAKE",
      "brand": "ESSO",
      "address": "HOYLAKE, HOYLAKE, CH47 0LA",
      "lat": 53.39785,
      "lng": -3.16973,
      "distance": 14.2,
      "is_supermarket": false,
      "is_motorway": false,
      "unleaded": 138.9,
      "diesel": 158.9,
      "updated": "2026-03-11T17:12:11.408Z",
      "id": 43
    },
    {
      "name": "SPITAL SF CONNECT",
      "brand": "BP",
      "address": "BRIMSTAGE ROAD, WIRRAL, CH63 3EL",
      "lat": 53.34132,
      "lng": -3.00749,
      "distance": 9.2,
      "is_supermarket": false,
      "is_motorway": false,
      "unleaded": 138.9,
      "diesel": 156.9,
      "updated": "2026-03-11T11:09:24.492Z",
      "id": 55
    },
    {
      "name": "BROUGHTON CHESTER EXTRA - PETROL FILLING STATION",
      "brand": "TESCO",
      "address": "1 BROUGHTON SHOPPING PARK, CHESTER ROAD, CHESTER, CH4 0DP",
      "lat": 53.16935,
      "lng": -2.9739,
      "distance": 3.7,
      "is_supermarket": false,
      "is_motorway": false,
      "unleaded": 138.9,
      "diesel": 156.9,
      "updated": "2026-03-11T18:11:34.611Z",
      "id": 84
    },
    {
      "name": "WREXHAM EXTRA - PETROL FILLING STATION",
      "brand": "TESCO",
      "address": "CRESCENT ROAD, WREXHAM, LL13 8HF",
      "lat": 53.04619,
      "lng": -2.98742,
      "distance": 11.4,
      "is_supermarket": false,
      "is_motorway": false,
      "unleaded": 138.9,
      "diesel": 152.9,
      "updated": "2026-03-11T17:58:00.817Z",
      "id": 95
    },
    {
      "name": "SAINSBURYS WREXHAM",
      "brand": "SAINSBURY'S",
      "address": "RETAIL PARK, PLAS COCH ROAD, WREXHAM, LL11 2BA",
      "lat": 53.05571,
      "lng": -3.00904,
      "distance": 10.6,
      "is_supermarket": false,
      "is_motorway": false,
      "unleaded": 138.9,
      "diesel": 153.9,
      "updated": "2026-03-11T22:03:19.722Z",
      "id": 97
    },
    {
      "name": "H W Oultram & Co",
      "brand": "OIL 4 WALES",
      "address": "H W OULTRAM & CO, NEWBRIDGE FARM & FILLING STATION, HOLYWELL ROAD, EWLOE, DEESIDE, CH5 3BS, DEESIDE, CH5 3BS",
      "lat": 53.1959232,
      "lng": -3.0636485,
      "distance": 1.6,
      "is_supermarket": false,
      "is_motorway": false,
      "unleaded": 139.9,
      "diesel": 158.9,
      "updated": "2026-03-09T16:10:51.177Z",
      "id": 3
    },
    {
      "name": "BP HARVEST ENERGY OVERPOOL",
      "brand": "BP HARVEST ENERGY",
      "address": "OVERPOOL ROAD, ELLESMERE PORT, CH66 2JF",
      "lat": 53.2714848,
      "lng": -2.9206747,
      "distance": 6.3,
      "is_supermarket": false,
      "is_motorway": false,
      "unleaded": 139.9,
      "diesel": 169.9,
      "updated": "2026-03-10T10:55:49.720Z",
      "id": 7
    },
    {
      "name": "MFG GREASBY",
      "brand": "ESSO",
      "address": "GREASBY ROAD, GREASBY  WIRRAL, CH49 2PF",
      "lat": 53.379848,
      "lng": -3.116135,
      "distance": 12.3,
      "is_supermarket": false,
      "is_motorway": false,
      "unleaded": 139.9,
      "diesel": 157.9,
      "updated": "2026-03-12T04:20:32.879Z",
      "id": 9
    },
    {
      "name": "MFG LISCARD",
      "brand": "SHELL",
      "address": "LLOYDS CORNER / LISCARD ROAD, WALLASEY, CH44 9AD",
      "lat": 53.414368,
      "lng": -3.02869,
      "distance": 14.2,
      "is_supermarket": false,
      "is_motorway": false,
      "unleaded": 139.9,
      "diesel": 165.9,
      "updated": "2026-03-12T01:09:26.322Z",
      "id": 19
    },
    {
      "name": "MFG STRAWBERRY",
      "brand": "BP",
      "address": "WHITBY ROUNDABOUT, ELLESMERE PORT, CH66 2PY",
      "lat": 53.256833,
      "lng": -2.909397,
      "distance": 6.1,
      "is_supermarket": false,
      "is_motorway": false,
      "unleaded": 139.9,
      "diesel": 165.9,
      "updated": "2026-03-12T01:06:11.925Z",
      "id": 24
    },
    {
      "name": "Plas Acton Fuel Station",
      "brand": "GULF",
      "address": "PLAS ACTON SERVICE STATION, PLAS ACTON GARAGE, 282, CHESTER ROAD, WRECSAM, LL12 8DU, WRECSAM, LL12 8DU",
      "lat": 53.0701313,
      "lng": -2.9897412,
      "distance": 9.8,
      "is_supermarket": false,
      "is_motorway": false,
      "unleaded": 139.9,
      "diesel": 159.9,
      "updated": "2026-03-09T13:58:25.292Z",
      "id": 26
    },
    {
      "name": "ASDA RHYL SUPERSTORE",
      "brand": "ASDA",
      "address": "ST ASAPH AVENUE NORTH, KINMEL BAY, RHYL, LL18 5EQ",
      "lat": 53.31088,
      "lng": -3.5214,
      "distance": 21.4,
      "is_supermarket": false,
      "is_motorway": false,
      "unleaded": 139.9,
      "diesel": 157.9,
      "updated": "2026-03-11T18:42:59.442Z",
      "id": 29
    },
    {
      "name": "Gordale Service Station",
      "brand": "GORDALE SERVICE STATION",
      "address": "GORDALE SERVICE STATION, CHESTER HIGH ROAD, BURTON, NESTON, CH64 8TF, NESTON, CH64 8TF",
      "lat": 53.2741984,
      "lng": -3.0014083,
      "distance": 4.7,
      "is_supermarket": false,
      "is_motorway": false,
      "unleaded": 139.9,
      "diesel": 169.9,
      "updated": "2026-03-11T09:33:04.654Z",
      "id": 54
    },
    {
      "name": "Ellesmere Port Service Station",
      "brand": "ELLESMERE PORT SERVICE STATION",
      "address": "ELLESMERE PORT SERVICE STATION, JACKS WOOD AVENUE, ELLESMERE PORT, CH65 3AA, ELLESMERE PORT, CH65 3AA",
      "lat": 53.2898073,
      "lng": -2.9077945,
      "distance": 7.6,
      "is_supermarket": false,
      "is_motorway": false,
      "unleaded": 139.9,
      "diesel": 155.9,
      "updated": "2026-03-09T12:44:44.325Z",
      "id": 63
    },
    {
      "name": "SHELL LITTLE WAITROSE HINDERTON",
      "brand": "SHELL",
      "address": "CHESTER HIGH ROAD, NESTON, CH64 7TA",
      "lat": 53.294253,
      "lng": -3.042575,
      "distance": 5.9,
      "is_supermarket": false,
      "is_motorway": false,
      "unleaded": 139.9,
      "diesel": 158.9,
      "updated": "2026-03-11T15:37:03.071Z",
      "id": 71
    },
    {
      "name": "MFG WALLASEY VILLAGE",
      "brand": "BP",
      "address": "15-35 LEASOWE ROAD, WALLASEY VILLAGE, CH44 2BY",
      "lat": 53.422893,
      "lng": -3.065875,
      "distance": 14.8,
      "is_supermarket": false,
      "is_motorway": false,
      "unleaded": 139.9,
      "diesel": 165.9,
      "updated": "2026-03-12T01:55:16.469Z",
      "id": 77
    },
    {
      "name": "RUTHIN",
      "brand": "TEXACO",
      "address": "PARK ROAD, RUTHIN, LL151NB",
      "lat": 53.1134,
      "lng": -3.31576,
      "distance": 13.4,
      "is_supermarket": false,
      "is_motorway": false,
      "unleaded": 139.9,
      "diesel": 164.9,
      "updated": "2026-03-11T13:24:36.245Z",
      "id": 90
    },
    {
      "name": "MFG MORRISONS RHYL",
      "brand": "MORRISONS",
      "address": "MARSH ROAD, RHYL, LL18 2DF",
      "lat": 53.317314,
      "lng": -3.489098,
      "distance": 20.3,
      "is_supermarket": false,
      "is_motorway": false,
      "unleaded": 140.9,
      "diesel": 159.9,
      "updated": "2026-03-12T03:59:24.435Z",
      "id": 70
    },
    {
      "name": "SAINSBURYS RHYL",
      "brand": "SAINSBURY'S",
      "address": "RHYL ROAD, RHUDDLAN, RHYL, LL18 2TP",
      "lat": 53.30371,
      "lng": -3.46769,
      "distance": 19.1,
      "is_supermarket": false,
      "is_motorway": false,
      "unleaded": 140.9,
      "diesel": 158.9,
      "updated": "2026-03-11T21:56:57.486Z",
      "id": 78
    },
    {
      "name": "EG PONTBLYDDYN PFS",
      "brand": "EG ON THE MOVE",
      "address": "WREXHAM ROAD, MOLD, CH7 4HL",
      "lat": 53.137161,
      "lng": -3.083567,
      "distance": 5.4,
      "is_supermarket": false,
      "is_motorway": false,
      "unleaded": 141.7,
      "diesel": 161.7,
      "updated": "2026-03-11T16:28:24.724Z",
      "id": 44
    },
    {
      "name": "MFG MORRISONS DENBIGH",
      "brand": "MORRISONS",
      "address": "SMITHFIELD ROAD, DENBIGH, LL16 3LW",
      "lat": 53.18224,
      "lng": -3.423087,
      "distance": 16.3,
      "is_supermarket": false,
      "is_motorway": false,
      "unleaded": 141.9,
      "diesel": 159.9,
      "updated": "2026-03-12T01:02:12.013Z",
      "id": 5
    },
    {
      "name": "MFG ROWTON",
      "brand": "ESSO",
      "address": "WHITCHURCH ROAD, ROWTON, CH3 6AF",
      "lat": 53.176188,
      "lng": -2.825907,
      "distance": 8.9,
      "is_supermarket": false,
      "is_motorway": false,
      "unleaded": 141.9,
      "diesel": 159.9,
      "updated": "2026-03-12T01:57:15.677Z",
      "id": 15
    },
    {
      "name": "BR Gwersyllt",
      "brand": "SPAR",
      "address": "PARKWALL SERVICE STATION, MOLD ROAD, GWERSYLLT, WREXHAM, LL11 4AH, WREXHAM, LL11 4AH",
      "lat": 53.0792616,
      "lng": -3.021987,
      "distance": 9.0,
      "is_supermarket": false,
      "is_motorway": false,
      "unleaded": 141.9,
      "diesel": 155.9,
      "updated": "2026-03-11T11:57:10.016Z",
      "id": 17
    },
    {
      "name": "PRESTATYN SUPERSTORE - PETROL FILLING STATION",
      "brand": "TESCO",
      "address": "TESCO STORES, PRESTATYN SHOPPING PARK, PRESTATYN, LL19 9BJ",
      "lat": 53.3366,
      "lng": -3.40236,
      "distance": 17.6,
      "is_supermarket": false,
      "is_motorway": false,
      "unleaded": 141.9,
      "diesel": 158.9,
      "updated": "2026-03-11T17:45:39.576Z",
      "id": 21
    },
    {
      "name": "RONTEC RUABON",
      "brand": "ESSO",
      "address": "RUABON BY PASS, WREXHAM, LL14 6YY",
      "lat": 52.99368,
      "lng": -3.03119,
      "distance": 14.9,
      "is_supermarket": false,
      "is_motorway": false,
      "unleaded": 141.9,
      "diesel": 157.9,
      "updated": "2026-03-11T14:20:34.254Z",
      "id": 32
    },
    {
      "name": "RONTEC WREXHAM",
      "brand": "BP",
      "address": "WREXHAM ROAD, JOHNSTOWN, WREXHAM, LL14 1PA",
      "lat": 53.01205,
      "lng": -3.04318,
      "distance": 13.6,
      "is_supermarket": false,
      "is_motorway": false,
      "unleaded": 141.9,
      "diesel": 157.9,
      "updated": "2026-03-11T14:47:21.615Z",
      "id": 33
    },
    {
      "name": "ASDA QUAY EXPRESS PETROL",
      "brand": "ESSO",
      "address": "CHURCH STREET, DEESIDE, CH5 4AS",
      "lat": 53.22449,
      "lng": -3.071442,
      "distance": 1.9,
      "is_supermarket": false,
      "is_motorway": false,
      "unleaded": 141.9,
      "diesel": 158.9,
      "updated": "2026-03-11T14:14:59.640Z",
      "id": 47
    },
    {
      "name": "ASDA PARKGATE EXPRESS PETROL",
      "brand": "ESSO",
      "address": "PARKGATE ROAD, CHESTER, CH1 4BE",
      "lat": 53.2043,
      "lng": -2.9023,
      "distance": 5.4,
      "is_supermarket": false,
      "is_motorway": false,
      "unleaded": 141.9,
      "diesel": 158.9,
      "updated": "2026-03-11T14:03:11.835Z",
      "id": 50
    },
    {
      "name": "ASDA HANDBRIDGE EXPRESS PETROL",
      "brand": "ASDA EXPRESS",
      "address": "QUEEN'S PARK ROAD, CHESTER, CH4 7JF",
      "lat": 53.183942,
      "lng": -2.887504,
      "distance": 6.3,
      "is_supermarket": false,
      "is_motorway": false,
      "unleaded": 141.9,
      "diesel": 158.9,
      "updated": "2026-03-11T17:48:57.054Z",
      "id": 53
    },
    {
      "name": "ASDA MORETON EXPRESS PETROL",
      "brand": "ESSO",
      "address": "157 HOYLAKE ROAD, WIRRAL, CH46 9PZ",
      "lat": 53.401,
      "lng": -3.107,
      "distance": 13.6,
      "is_supermarket": false,
      "is_motorway": false,
      "unleaded": 141.9,
      "diesel": 158.9,
      "updated": "2026-03-11T14:28:31.644Z",
      "id": 58
    },
    {
      "name": "ASDA LAIRDS EXPRESS PETROL",
      "brand": "ESSO",
      "address": "117 NEW CHESTER ROAD, BIRKENHEAD, CH41 9BW",
      "lat": 53.379868,
      "lng": -3.01265,
      "distance": 11.8,
      "is_supermarket": false,
      "is_motorway": false,
      "unleaded": 141.9,
      "diesel": 158.9,
      "updated": "2026-03-11T14:04:27.679Z",
      "id": 59
    },
    {
      "name": "ASDA GREENLANE EXPRESS PETROL",
      "brand": "ESSO",
      "address": "6 NEW CHESTER ROAD, BIRKENHEAD, CH41 9AZ",
      "lat": 53.384,
      "lng": -3.015,
      "distance": 12.1,
      "is_supermarket": false,
      "is_motorway": false,
      "unleaded": 141.9,
      "diesel": 158.9,
      "updated": "2026-03-11T14:05:53.781Z",
      "id": 60
    },
    {
      "name": "ASDA ELLESMERE PORT EXPRESS PETROL",
      "brand": "ESSO",
      "address": "118 WHITBY ROAD, ELLESMERE PORT, CH65 6TF",
      "lat": 53.278,
      "lng": -2.904,
      "distance": 7.2,
      "is_supermarket": false,
      "is_motorway": false,
      "unleaded": 141.9,
      "diesel": 158.9,
      "updated": "2026-03-11T17:54:39.061Z",
      "id": 62
    },
    {
      "name": "HILLCREST MOTOR CO LTD",
      "brand": "GULF",
      "address": "Hillcres Motor Co Ltd, HOLYWELL, CH8 7SJ",
      "lat": 53.26136,
      "lng": -3.20879,
      "distance": 8.1,
      "is_supermarket": true,
      "is_motorway": false,
      "unleaded": 141.9,
      "diesel": 159.9,
      "updated": "2026-03-11T09:53:21.523Z",
      "id": 67
    },
    {
      "name": "BR Flint",
      "brand": "SPAR",
      "address": "211A, CHESTER ROAD, OAKENHOLT, Y FFLINT, CH6 5DZ, Y FFLINT, CH6 5DZ",
      "lat": 53.2443473,
      "lng": -3.1222575,
      "distance": 4.4,
      "is_supermarket": false,
      "is_motorway": false,
      "unleaded": 141.9,
      "diesel": 165.9,
      "updated": "2026-03-10T11:27:09.898Z",
      "id": 73
    },
    {
      "name": "MFG COLESHILL",
      "brand": "SHELL",
      "address": "HOLYWELL ROAD, FLINT, CH6 5RR",
      "lat": 53.253768,
      "lng": -3.14176,
      "distance": 5.5,
      "is_supermarket": false,
      "is_motorway": false,
      "unleaded": 141.9,
      "diesel": 165.9,
      "updated": "2026-03-12T01:39:21.969Z",
      "id": 79
    },
    {
      "name": "MOLD SUPERSTORE - PETROL FILLING STATION",
      "brand": "TESCO",
      "address": "PONTERWYL, YR WYDDGRUG, CH7 1UB",
      "lat": 53.16708,
      "lng": -3.13754,
      "distance": 5.2,
      "is_supermarket": false,
      "is_motorway": false,
      "unleaded": 141.9,
      "diesel": 158.9,
      "updated": "2026-03-11T18:18:47.679Z",
      "id": 81
    },
    {
      "name": "SHELL GAYTON",
      "brand": "SHELL",
      "address": "CHESTER ROAD, WIRRAL, MERSEYSIDE, CH60 3RY",
      "lat": 53.322022,
      "lng": -3.084409,
      "distance": 8.1,
      "is_supermarket": false,
      "is_motorway": false,
      "unleaded": 141.9,
      "diesel": 158.9,
      "updated": "2026-03-11T15:29:02.562Z",
      "id": 83
    },
    {
      "name": "BP HARVEST ENERGY HOYLAKE",
      "brand": "BP HARVEST ENERGY",
      "address": "HOYLAKE ROAD, WIRRAL, CH46 5NA",
      "lat": 53.3961782,
      "lng": -3.1318942,
      "distance": 13.6,
      "is_supermarket": false,
      "is_motorway": false,
      "unleaded": 141.9,
      "diesel": 158.9,
      "updated": "2026-03-11T13:22:23.640Z",
      "id": 86
    },
    {
      "name": "SHELL MERSEY VIEW",
      "brand": "SHELL",
      "address": "STATION ROAD, ELLESMERE PORT, CH65 4AX",
      "lat": 53.284662,
      "lng": -2.89441,
      "distance": 7.8,
      "is_supermarket": false,
      "is_motorway": false,
      "unleaded": 141.9,
      "diesel": 159.9,
      "updated": "2026-03-10T15:29:02.822Z",
      "id": 94
    },
    {
      "name": "MFG PRESTATYN",
      "brand": "BP",
      "address": "MARINE ROAD, PRESTATYN, LL19 7HA",
      "lat": 53.3376,
      "lng": -3.40742,
      "distance": 17.8,
      "is_supermarket": false,
      "is_motorway": false,
      "unleaded": 141.9,
      "diesel": 165.9,
      "updated": "2026-03-12T01:18:15.752Z",
      "id": 99
    },
    {
      "name": "SHELL CO-OP WREXHAM",
      "brand": "SHELL",
      "address": "MOLD ROAD, WREXHAM, LL11 2AF",
      "lat": 53.051908,
      "lng": -3.006356,
      "distance": 10.9,
      "is_supermarket": false,
      "is_motorway": false,
      "unleaded": 142.9,
      "diesel": 156.9,
      "updated": "2026-03-11T17:56:03.024Z",
      "id": 4
    },
    {
      "name": "ASDA VALE EXPRESS PETROL",
      "brand": "ESSO",
      "address": "193 VALE ROAD, CONWY, LL18 2PH",
      "lat": 53.316,
      "lng": -3.477,
      "distance": 19.8,
      "is_supermarket": false,
      "is_motorway": false,
      "unleaded": 142.9,
      "diesel": 159.9,
      "updated": "2026-03-11T14:22:12.179Z",
      "id": 40
    },
    {
      "name": "ASDA DEESIDE EXPRESS PETROL",
      "brand": "BP",
      "address": "PARKWAY, DEESIDE, CH5 2NS",
      "lat": 53.232092,
      "lng": -3.006867,
      "distance": 1.9,
      "is_supermarket": false,
      "is_motorway": false,
      "unleaded": 142.9,
      "diesel": 171.9,
      "updated": "2026-03-11T14:08:19.835Z",
      "id": 48
    },
    {
      "name": "SHELL UPTON",
      "brand": "SHELL",
      "address": "ARROWE PARK ROAD, WIRRAL, CH49 0UE",
      "lat": 53.381566,
      "lng": -3.09902,
      "distance": 12.2,
      "is_supermarket": false,
      "is_motorway": false,
      "unleaded": 142.9,
      "diesel": 157.9,
      "updated": "2026-03-11T16:09:02.935Z",
      "id": 89
    },
    {
      "name": "SHELL WIRRAL WAY",
      "brand": "SHELL",
      "address": "413 BOROUGH ROAD, BIRKENHEAD, CH42 0HA",
      "lat": 53.384042,
      "lng": -3.032912,
      "distance": 12.1,
      "is_supermarket": false,
      "is_motorway": false,
      "unleaded": 142.9,
      "diesel": 158.9,
      "updated": "2026-03-11T16:15:02.814Z",
      "id": 92
    },
    {
      "name": "SHELL HOOLE ROAD",
      "brand": "SHELL",
      "address": "HOOLE ROAD, CHESTER, CH2 3NH",
      "lat": 53.199234,
      "lng": -2.878935,
      "distance": 6.4,
      "is_supermarket": false,
      "is_motorway": false,
      "unleaded": 142.9,
      "diesel": 159.9,
      "updated": "2026-03-09T12:12:05.978Z",
      "id": 93
    },
    {
      "name": "CASTLE VIEW",
      "brand": "TEXACO",
      "address": "RHYL ROAD, DENBIGH, LL16 5SU",
      "lat": 53.1912,
      "lng": -3.40882,
      "distance": 15.6,
      "is_supermarket": false,
      "is_motorway": false,
      "unleaded": 143.9,
      "diesel": 163.9,
      "updated": "2026-03-11T13:24:22.436Z",
      "id": 11
    },
    {
      "name": "SHELL CARLETT",
      "brand": "SHELL",
      "address": "1201 NEW CHESTER ROAD, WIRRAL, CH62 0BZ",
      "lat": 53.314799,
      "lng": -2.963826,
      "distance": 7.9,
      "is_supermarket": false,
      "is_motorway": false,
      "unleaded": 143.9,
      "diesel": 171.9,
      "updated": "2026-03-11T15:06:02.910Z",
      "id": 18
    },
    {
      "name": "ASDA COEDPOETH EXPRESS PETROL",
      "brand": "ASDA EXPRESS",
      "address": "HIGH STREET, WREXHAM, LL11 3UF",
      "lat": 53.0553979,
      "lng": -3.0743781,
      "distance": 10.7,
      "is_supermarket": false,
      "is_motorway": false,
      "unleaded": 143.9,
      "diesel": 159.9,
      "updated": "2026-03-11T17:51:05.291Z",
      "id": 35
    },
    {
      "name": "ASDA TREFFYNNON EXPRESS PETROL",
      "brand": "ESSO",
      "address": "HALKYN ROAD, FLINTSHIRE, CH8 7SG",
      "lat": 53.267,
      "lng": -3.216,
      "distance": 8.6,
      "is_supermarket": false,
      "is_motorway": false,
      "unleaded": 143.9,
      "diesel": 161.9,
      "updated": "2026-03-11T17:54:58.377Z",
      "id": 42
    },
    {
      "name": "ASDA WREXHAM ROAD EXPRESS PETROL",
      "brand": "BP",
      "address": "WREXHAM ROAD, CHESTER, CH4 9DE",
      "lat": 53.162955,
      "lng": -2.908206,
      "distance": 6.1,
      "is_supermarket": false,
      "is_motorway": false,
      "unleaded": 143.9,
      "diesel": 171.9,
      "updated": "2026-03-11T14:09:25.859Z",
      "id": 49
    },
    {
      "name": "ASCONA HOLYWELL SERVICE STATION",
      "brand": "VALERO",
      "address": "HOLWAY ROAD, HOLYWELL, CH8 7LQ",
      "lat": 53.279441,
      "lng": -3.2410974,
      "distance": 9.9,
      "is_supermarket": false,
      "is_motorway": false,
      "unleaded": 144.0,
      "diesel": 156.0,
      "updated": "2026-03-10T11:54:13.213Z",
      "id": 6
    },
    {
      "name": "SHELL CHESTER",
      "brand": "SHELL",
      "address": "TARVIN ROAD, CHESTER, CH3 5NJ",
      "lat": 53.193526,
      "lng": -2.856604,
      "distance": 7.4,
      "is_supermarket": false,
      "is_motorway": false,
      "unleaded": 144.9,
      "diesel": 161.9,
      "updated": "2026-03-10T14:34:03.016Z",
      "id": 13
    },
    {
      "name": "STANS OF LLANGOLLEN",
      "brand": "TEXACO",
      "address": "STANS OF LLANGOLLEN, BERWYN STREET, LLANGOLLEN, LL20 8NF, LLANGOLLEN, LL20 8NF",
      "lat": 52.9688428,
      "lng": -3.171139,
      "distance": 17.6,
      "is_supermarket": true,
      "is_motorway": false,
      "unleaded": 144.9,
      "diesel": 157.9,
      "updated": "2026-03-10T13:49:08.960Z",
      "id": 30
    },
    {
      "name": "Ruabon Park Service Station",
      "brand": "RUABON PARK SERVICE STATION",
      "address": "RUABON PARK SERVICE STATION, JAMES PARK WAY, RUABON, WREXHAM, LL14 6EQ, WREXHAM, LL14 6EQ",
      "lat": 52.9833637,
      "lng": -3.0453473,
      "distance": 15.6,
      "is_supermarket": false,
      "is_motorway": false,
      "unleaded": 144.9,
      "diesel": 159.9,
      "updated": "2026-02-06T14:15:53.735Z",
      "id": 31
    },
    {
      "name": "ASDA RHOSTYLLEN EXPRESS PETROL",
      "brand": "ESSO",
      "address": "WREXHAM ROAD, WREXHAM, LL14 4EJ",
      "lat": 53.027758,
      "lng": -3.029416,
      "distance": 12.5,
      "is_supermarket": false,
      "is_motorway": true,
      "unleaded": 144.9,
      "diesel": 159.9,
      "updated": "2026-03-11T14:05:57.512Z",
      "id": 34
    },
    {
      "name": "ASDA GOWY EXPRESS PETROL",
      "brand": "ESSO",
      "address": "TARVIN ROAD, CHESTER, CH3 7HN",
      "lat": 53.2,
      "lng": -2.802,
      "distance": 9.6,
      "is_supermarket": false,
      "is_motorway": false,
      "unleaded": 144.9,
      "diesel": 161.9,
      "updated": "2026-03-11T14:02:19.266Z",
      "id": 66
    },
    {
      "name": "Greenacre Garage",
      "brand": "GREENACRE GARAGE",
      "address": "GREENACRE GARAGE, CHURCH STREET, TARVIN, CHESTER, CH3 8NA, CHESTER, CH3 8NA",
      "lat": 53.1951588,
      "lng": -2.7628614,
      "distance": 11.2,
      "is_supermarket": true,
      "is_motorway": false,
      "unleaded": 144.9,
      "diesel": 162.9,
      "updated": "2026-03-09T13:33:05.525Z",
      "id": 82
    },
    {
      "name": "BR Buckley",
      "brand": "SPAR",
      "address": "72, MOLD ROAD, BUCKLEY, CH7 2NJ, BUCKLEY, CH7 2NJ",
      "lat": 53.1685643,
      "lng": -3.0885872,
      "distance": 3.6,
      "is_supermarket": false,
      "is_motorway": false,
      "unleaded": 144.9,
      "diesel": 161.9,
      "updated": "2026-03-10T12:58:49.505Z",
      "id": 98
    },
    {
      "name": "ASDA RHUDDLAN EXPRESS PETROL",
      "brand": "TEXACO",
      "address": "RHYL ROAD, RHUDDLAN, LL18 2TS",
      "lat": 53.2927362,
      "lng": -3.4638487,
      "distance": 18.7,
      "is_supermarket": false,
      "is_motorway": false,
      "unleaded": 145.9,
      "diesel": 161.9,
      "updated": "2026-03-11T17:52:54.877Z",
      "id": 39
    },
    {
      "name": "Dobshill Service Station",
      "brand": "DOBSHILL SERVICE STATION",
      "address": "DOBSHILL SERVICE STATION, CHESTER ROAD, DOBSHILL, DEESIDE, CH5 3LZ, DEESIDE, CH5 3LZ",
      "lat": 53.1636207,
      "lng": -3.039481,
      "distance": 3.1,
      "is_supermarket": false,
      "is_motorway": false,
      "unleaded": 145.9,
      "diesel": 161.9,
      "updated": "2026-03-11T14:48:42.239Z",
      "id": 45
    },
    {
      "name": "SHELL CO-OP MOLD",
      "brand": "SHELL",
      "address": "CHESTER ROAD, MOLD, CH7 6LQ",
      "lat": 53.181156,
      "lng": -3.111588,
      "distance": 3.8,
      "is_supermarket": false,
      "is_motorway": false,
      "unleaded": 145.9,
      "diesel": 163.9,
      "updated": "2026-03-10T14:36:04.200Z",
      "id": 72
    },
    {
      "name": "SHELL NORTHOP",
      "brand": "SHELL",
      "address": "A55, MOLD, CH7 6HB",
      "lat": 53.192913,
      "lng": -3.081794,
      "distance": 2.3,
      "is_supermarket": false,
      "is_motorway": false,
      "unleaded": 149.9,
      "diesel": 171.9,
      "updated": "2026-03-10T15:32:03.420Z",
      "id": 23
    },
    {
      "name": "FERDI'S LOCAL",
      "brand": "FERDI'S LOCAL",
      "address": "FERDI'S LOCAL, 43-44, SALOP ROAD, OVERTON, WREXHAM, LL13 0EH, WREXHAM, LL13 0EH",
      "lat": 52.968534,
      "lng": -2.9339477,
      "distance": 17.1,
      "is_supermarket": true,
      "is_motorway": false,
      "unleaded": 149.9,
      "diesel": 172.9,
      "updated": "2026-03-11T10:13:03.818Z",
      "id": 36
    },
    {
      "name": "ASDA RED ENSIGN EXPRESS PETROL",
      "brand": "BP",
      "address": "PARKGATE ROAD, CHESTER, CH1 6JS",
      "lat": 53.232995,
      "lng": -2.942376,
      "distance": 4.1,
      "is_supermarket": false,
      "is_motorway": true,
      "unleaded": 149.9,
      "diesel": 171.9,
      "updated": "2026-03-11T14:08:51.969Z",
      "id": 51
    },
    {
      "name": "ASDA KINMEL PARK WEST EXPRESS PETROL",
      "brand": "ESSO",
      "address": "A55 WESTBOUND, BODELWYDDAN, LL18 5XW",
      "lat": 53.26836,
      "lng": -3.51915,
      "distance": 20.5,
      "is_supermarket": false,
      "is_motorway": true,
      "unleaded": 151.9,
      "diesel": 166.9,
      "updated": "2026-03-11T14:14:50.714Z",
      "id": 27
    },
    {
      "name": "ASDA KINMEL PARK EAST EXPRESS PETROL",
      "brand": "ESSO",
      "address": "55 EXPRESSWAY, BODELWYDDAN, LL18 5XE",
      "lat": 53.269735,
      "lng": -3.51867,
      "distance": 20.5,
      "is_supermarket": false,
      "is_motorway": true,
      "unleaded": 151.9,
      "diesel": 166.9,
      "updated": "2026-03-11T14:13:54.325Z",
      "id": 28
    },
    {
      "name": "ASDA SINGING KETTLE S/STN EXPRESS PETROL",
      "brand": "BP",
      "address": "ST ASAPH ROAD, HOLYWELL, CH8 8RD",
      "lat": 53.274981,
      "lng": -3.292738,
      "distance": 11.7,
      "is_supermarket": false,
      "is_motorway": true,
      "unleaded": 152.9,
      "diesel": 171.9,
      "updated": "2026-03-11T13:56:46.514Z",
      "id": 41
    },
    {
      "name": "Lobitos",
      "brand": "ESSO",
      "address": "LOBITOS LTD, GWESPYR, TREFFYNNON, CH8 9JS, TREFFYNNON, CH8 9JS",
      "lat": 53.342343,
      "lng": -3.3371063,
      "distance": 15.6,
      "is_supermarket": false,
      "is_motorway": false,
      "unleaded": 153.9,
      "diesel": 159.9,
      "updated": "2026-03-11T07:15:15.548Z",
      "id": 96
    },
    {
      "name": "Dyffryn Service Station",
      "brand": "ESSO",
      "address": "DYFFRYN SERVICE STATION, DENBIGH ROAD, RUTHIN, LL15 1PE, RUTHIN, LL15 1PE",
      "lat": 53.1167433,
      "lng": -3.3249443,
      "distance": 13.7,
      "is_supermarket": false,
      "is_motorway": false,
      "unleaded": 156.9,
      "diesel": 159.9,
      "updated": "2026-03-10T07:31:29.762Z",
      "id": 38
    },
    {
      "name": "SHELL HAPSFORD MWSA",
      "brand": "SHELL",
      "address": "JUNCTION 14 M56, HAPSFORD, CH2 4QZ",
      "lat": 53.268277,
      "lng": -2.801322,
      "distance": 10.4,
      "is_supermarket": false,
      "is_motorway": true,
      "unleaded": 159.9,
      "diesel": 179.9,
      "updated": "2026-03-11T15:34:03.090Z",
      "id": 69
    }
  ]
}