{
  "nationalAvg": {
    "unleaded": 152.9,
    "diesel": 188.9
  },
  "lastUpdated": "2026-03-31T06:02:54.373873+00:00",
  "stationCount": 163,
  "stations": [
    {
      "name": "SAINSBURYS PENSBY ROAD THINGWALL",
      "brand": "SAINSBURY'S",
      "address": "",
      "postcode": "CH61 7UB",
      "lat": 53.35295,
      "lng": -3.09298,
      "distance": 11.5,
      "is_supermarket": false,
      "is_motorway": false,
      "unleaded": 148.9,
      "diesel": 177.9,
      "updated": "2026-03-30T23:02:51.000Z",
      "cached": false
    },
    {
      "name": "SAINSBURYS LIVERPOOL GREAT HOMER STREET",
      "brand": "SAINSBURY'S",
      "address": "",
      "postcode": "L5 3LQ",
      "lat": 53.4245,
      "lng": -2.98122,
      "distance": 16.3,
      "is_supermarket": false,
      "is_motorway": false,
      "unleaded": 145.9,
      "diesel": 170.9,
      "updated": "2026-03-28T21:09:40.000Z",
      "cached": false
    },
    {
      "name": "MFG GRAND NATIONAL",
      "brand": "TEXACO",
      "address": "",
      "postcode": "L4 3QP",
      "lat": 53.437562,
      "lng": -2.974533,
      "distance": 17.3,
      "is_supermarket": false,
      "is_motorway": false,
      "unleaded": 149.9,
      "diesel": 195.9,
      "updated": "2026-03-28T00:03:42.000Z",
      "cached": false
    },
    {
      "name": "MFG MORRISONS WEST KIRBY",
      "brand": "MORRISONS",
      "address": "",
      "postcode": "CH48 4HX",
      "lat": 53.374111,
      "lng": -3.181775,
      "distance": 14.1,
      "is_supermarket": false,
      "is_motorway": false,
      "unleaded": 149.9,
      "diesel": 189.9,
      "updated": "2026-03-29T21:43:45.000Z",
      "cached": false
    },
    {
      "name": "PGG EGREMONT",
      "brand": "VALERO EGREMONT",
      "address": "",
      "postcode": "CH44 0BZ",
      "lat": 53.42099,
      "lng": -3.02968,
      "distance": 16.0,
      "is_supermarket": false,
      "is_motorway": false,
      "unleaded": 155.9,
      "diesel": 209.9,
      "updated": "2026-03-25T10:25:39.000Z",
      "cached": false
    },
    {
      "name": "SAINSBURYS EAST PRESCOT ROAD",
      "brand": "SAINSBURY'S",
      "address": "",
      "postcode": "L14 5PT",
      "lat": 53.41626,
      "lng": -2.90022,
      "distance": 16.6,
      "is_supermarket": false,
      "is_motorway": false,
      "unleaded": 148.9,
      "diesel": 176.9,
      "updated": "2026-03-30T22:01:21.000Z",
      "cached": false
    },
    {
      "name": "H W Oultram & Co",
      "brand": "Oil 4 Wales",
      "address": "",
      "postcode": "CH5 3BS",
      "lat": 53.1959232,
      "lng": -3.0636485,
      "distance": 1.3,
      "is_supermarket": false,
      "is_motorway": false,
      "unleaded": 152.9,
      "diesel": 184.9,
      "updated": "2026-03-28T12:11:13.000Z",
      "cached": false
    },
    {
      "name": "SHELL CO-OP WREXHAM",
      "brand": "SHELL",
      "address": "",
      "postcode": "LL11 2AF",
      "lat": 53.051908,
      "lng": -3.006356,
      "distance": 9.6,
      "is_supermarket": false,
      "is_motorway": false,
      "unleaded": 154.9,
      "diesel": 199.9,
      "updated": "2026-03-27T15:15:00.000Z",
      "cached": false
    },
    {
      "name": "MFG MORRISONS LIVERPOOL BELLE VALE",
      "brand": "MORRISONS",
      "address": "",
      "postcode": "L25 2RD",
      "lat": 53.388579,
      "lng": -2.857531,
      "distance": 15.5,
      "is_supermarket": false,
      "is_motorway": false,
      "unleaded": 148.9,
      "diesel": 178.9,
      "updated": "2026-03-29T19:56:32.000Z",
      "cached": false
    },
    {
      "name": "PGG LEVERHULME",
      "brand": "VALERO LEVERHULME",
      "address": "",
      "postcode": "CH62 6AT",
      "lat": 53.32585,
      "lng": -2.97254,
      "distance": 9.7,
      "is_supermarket": false,
      "is_motorway": false,
      "unleaded": 153.9,
      "diesel": 205.9,
      "updated": "2026-03-28T14:04:00.000Z",
      "cached": false
    },
    {
      "name": "MFG MORRISONS DENBIGH",
      "brand": "MORRISONS",
      "address": "",
      "postcode": "LL16 3LW",
      "lat": 53.18224,
      "lng": -3.423087,
      "distance": 16.1,
      "is_supermarket": false,
      "is_motorway": false,
      "unleaded": 149.9,
      "diesel": 179.9,
      "updated": "2026-03-29T20:33:48.000Z",
      "cached": false
    },
    {
      "name": "ASCONA HOLYWELL SERVICE STATION",
      "brand": "VALERO",
      "address": "",
      "postcode": "CH8 7LQ",
      "lat": 53.279441,
      "lng": -3.2410974,
      "distance": 10.6,
      "is_supermarket": false,
      "is_motorway": false,
      "unleaded": 159.0,
      "diesel": 183.0,
      "updated": "2026-03-30T12:24:35.000Z",
      "cached": false
    },
    {
      "name": "SHELL CO-OP EDGE LANE",
      "brand": "SHELL",
      "address": "",
      "postcode": "L7 9LD",
      "lat": 53.409075,
      "lng": -2.940101,
      "distance": 15.6,
      "is_supermarket": false,
      "is_motorway": false,
      "unleaded": 157.9,
      "diesel": 199.9,
      "updated": "2026-03-24T11:50:00.000Z",
      "cached": false
    },
    {
      "name": "BP HARVEST ENERGY GRASSENDALE",
      "brand": "BP HARVEST ENERGY",
      "address": "",
      "postcode": "L19 0NY",
      "lat": 53.3611763,
      "lng": -2.9129944,
      "distance": 12.8,
      "is_supermarket": false,
      "is_motorway": false,
      "unleaded": 149.9,
      "diesel": 177.9,
      "updated": "2026-03-27T16:46:30.000Z",
      "cached": false
    },
    {
      "name": "BP HARVEST ENERGY OVERPOOL",
      "brand": "BP HARVEST ENERGY",
      "address": "",
      "postcode": "CH66 2JF",
      "lat": 53.2714848,
      "lng": -2.9206747,
      "distance": 7.3,
      "is_supermarket": false,
      "is_motorway": false,
      "unleaded": 155.9,
      "diesel": 210.9,
      "updated": "2026-03-30T10:44:57.000Z",
      "cached": false
    },
    {
      "name": "THORNTON SERVICE STATION",
      "brand": "TEXACO",
      "address": "",
      "postcode": "CH66 1QF",
      "lat": 53.29228,
      "lng": -2.9525,
      "distance": 7.8,
      "is_supermarket": false,
      "is_motorway": false,
      "unleaded": 154.9,
      "diesel": 184.9,
      "updated": "2026-03-27T11:13:08.000Z",
      "cached": false
    },
    {
      "name": "LOGGERHEAD SERVICE STATION",
      "brand": "ESSAR",
      "address": "",
      "postcode": "CH7 5SA",
      "lat": 53.15271,
      "lng": -3.20312,
      "distance": 7.5,
      "is_supermarket": false,
      "is_motorway": false,
      "unleaded": 154.9,
      "diesel": 184.9,
      "updated": "2026-03-26T10:19:13.000Z",
      "cached": false
    },
    {
      "name": "ESSO VICTORIA SERVICE STATION",
      "brand": "ESSO VICTORIA SERVICE STATION",
      "address": "",
      "postcode": "L17 8FW",
      "lat": 53.3850184,
      "lng": -2.9504827,
      "distance": 13.9,
      "is_supermarket": true,
      "is_motorway": false,
      "unleaded": 149.9,
      "diesel": 179.9,
      "updated": "2026-03-30T09:39:48.000Z",
      "cached": false
    },
    {
      "name": "MFG GREASBY",
      "brand": "ESSO",
      "address": "",
      "postcode": "CH49 2PF",
      "lat": 53.379848,
      "lng": -3.116135,
      "distance": 13.6,
      "is_supermarket": false,
      "is_motorway": false,
      "unleaded": 155.9,
      "diesel": 199.9,
      "updated": "2026-03-27T21:47:08.000Z",
      "cached": false
    },
    {
      "name": "PENSBY SERVICE STATION",
      "brand": "TEXACO",
      "address": "",
      "postcode": "CH61 9NF",
      "lat": 53.34639,
      "lng": -3.09472,
      "distance": 11.1,
      "is_supermarket": false,
      "is_motorway": false,
      "unleaded": 154.9,
      "diesel": 199.9,
      "updated": "2026-03-27T10:10:35.000Z",
      "cached": false
    },
    {
      "name": "SAINSBURYS CHESTER",
      "brand": "SAINSBURY'S",
      "address": "",
      "postcode": "CH3 5QJ",
      "lat": 53.18467,
      "lng": -2.85543,
      "distance": 7.4,
      "is_supermarket": false,
      "is_motorway": false,
      "unleaded": 149.9,
      "diesel": 181.9,
      "updated": "2026-03-30T22:26:25.000Z",
      "cached": false
    },
    {
      "name": "TGC - CASTLE VIEW",
      "brand": "TEXACO",
      "address": "",
      "postcode": "LL16 5SU",
      "lat": 53.1912,
      "lng": -3.40882,
      "distance": 15.5,
      "is_supermarket": false,
      "is_motorway": false,
      "unleaded": 152.9,
      "diesel": 202.9,
      "updated": "2026-03-28T10:23:57.000Z",
      "cached": false
    },
    {
      "name": "MFG BEBINGTON",
      "brand": "TEXACO",
      "address": "",
      "postcode": "CH63 7LQ",
      "lat": 53.359963,
      "lng": -3.006007,
      "distance": 11.8,
      "is_supermarket": false,
      "is_motorway": false,
      "unleaded": 149.9,
      "diesel": 195.9,
      "updated": "2026-03-27T23:00:37.000Z",
      "cached": false
    },
    {
      "name": "STONYCROFT QUEENS DR ESSO EXPRESS",
      "brand": "ESSO",
      "address": "",
      "postcode": "L13 0AR",
      "lat": 53.42332,
      "lng": -2.91581,
      "distance": 16.8,
      "is_supermarket": false,
      "is_motorway": false,
      "unleaded": 144.9,
      "diesel": 195.9,
      "updated": "2026-03-30T15:09:21.000Z",
      "cached": false
    },
    {
      "name": "SHELL CHESTER",
      "brand": "SHELL",
      "address": "",
      "postcode": "CH3 5NJ",
      "lat": 53.193526,
      "lng": -2.856604,
      "distance": 7.3,
      "is_supermarket": false,
      "is_motorway": false,
      "unleaded": 159.9,
      "diesel": 199.9,
      "updated": "2026-03-24T11:45:00.000Z",
      "cached": false
    },
    {
      "name": "MFG MORRISONS CHESTER LIVERPOOL ROAD",
      "brand": "MORRISONS",
      "address": "",
      "postcode": "CH2 1AU",
      "lat": 53.209038,
      "lng": -2.894566,
      "distance": 5.9,
      "is_supermarket": false,
      "is_motorway": false,
      "unleaded": 149.9,
      "diesel": 179.9,
      "updated": "2026-03-29T22:59:13.000Z",
      "cached": false
    },
    {
      "name": "ESSAR BREWSTER STREET SERVICE STATRION",
      "brand": "ESSAR",
      "address": "",
      "postcode": "L4 3TL",
      "lat": 53.4427363,
      "lng": -2.9777311,
      "distance": 17.6,
      "is_supermarket": false,
      "is_motorway": false,
      "unleaded": 150.1,
      "diesel": 178.1,
      "updated": "2026-03-30T13:13:00.000Z",
      "cached": false
    },
    {
      "name": "MFG ROWTON",
      "brand": "ESSO",
      "address": "",
      "postcode": "CH3 6AF",
      "lat": 53.176188,
      "lng": -2.825907,
      "distance": 8.6,
      "is_supermarket": false,
      "is_motorway": false,
      "unleaded": 157.9,
      "diesel": 199.9,
      "updated": "2026-03-28T00:06:21.000Z",
      "cached": false
    },
    {
      "name": "SHELL CHILDWALL",
      "brand": "SHELL",
      "address": "",
      "postcode": "L15 7NE",
      "lat": 53.403651,
      "lng": -2.899809,
      "distance": 15.8,
      "is_supermarket": false,
      "is_motorway": false,
      "unleaded": 154.9,
      "diesel": 199.9,
      "updated": "2026-03-27T15:00:00.000Z",
      "cached": false
    },
    {
      "name": "ALMOND GREEN PETROL STATION",
      "brand": "PACE",
      "address": "",
      "postcode": "L125HR",
      "lat": 53.435146,
      "lng": -2.91486,
      "distance": 17.6,
      "is_supermarket": false,
      "is_motorway": false,
      "unleaded": 149.9,
      "diesel": 174.9,
      "updated": "2026-03-26T21:45:29.000Z",
      "cached": false
    },
    {
      "name": "SAINSBURYS ELLESMERE PORT",
      "brand": "SAINSBURY'S",
      "address": "",
      "postcode": "CH65 9HN",
      "lat": 53.26233,
      "lng": -2.88042,
      "distance": 8.1,
      "is_supermarket": false,
      "is_motorway": false,
      "unleaded": 149.9,
      "diesel": 180.9,
      "updated": "2026-03-30T21:52:25.000Z",
      "cached": false
    },
    {
      "name": "BR Gwersyllt",
      "brand": "Spar",
      "address": "",
      "postcode": "LL11 4AH",
      "lat": 53.0792616,
      "lng": -3.021987,
      "distance": 7.7,
      "is_supermarket": false,
      "is_motorway": false,
      "unleaded": 154.9,
      "diesel": 188.9,
      "updated": "2026-03-30T12:55:14.000Z",
      "cached": false
    },
    {
      "name": "SHELL CARLETT",
      "brand": "SHELL",
      "address": "",
      "postcode": "CH62 0BZ",
      "lat": 53.314799,
      "lng": -2.963826,
      "distance": 9.1,
      "is_supermarket": false,
      "is_motorway": false,
      "unleaded": 158.9,
      "diesel": 199.9,
      "updated": "2026-03-24T11:45:00.000Z",
      "cached": false
    },
    {
      "name": "MFG LISCARD",
      "brand": "SHELL",
      "address": "",
      "postcode": "CH44 9AD",
      "lat": 53.414368,
      "lng": -3.02869,
      "distance": 15.5,
      "is_supermarket": false,
      "is_motorway": false,
      "unleaded": 156.9,
      "diesel": 199.9,
      "updated": "2026-03-22T09:48:47.000Z",
      "cached": false
    },
    {
      "name": "MFG MORRISONS SALTNEY",
      "brand": "MORRISONS",
      "address": "",
      "postcode": "CH4 8RU",
      "lat": 53.178287,
      "lng": -2.935342,
      "distance": 4.1,
      "is_supermarket": false,
      "is_motorway": false,
      "unleaded": 149.9,
      "diesel": 190.9,
      "updated": "2026-03-30T21:52:27.000Z",
      "cached": false
    },
    {
      "name": "ESSAR GATEACRE SERVICE STATION",
      "brand": "ESSAR",
      "address": "",
      "postcode": "L25 1PG",
      "lat": 53.3921211,
      "lng": -2.8725312,
      "distance": 15.5,
      "is_supermarket": false,
      "is_motorway": false,
      "unleaded": 151.4,
      "diesel": 180.4,
      "updated": "2026-03-30T13:14:07.000Z",
      "cached": false
    },
    {
      "name": "PRESTATYN SUPERSTORE - PETROL FILLING STATION",
      "brand": "TESCO",
      "address": "",
      "postcode": "LL19 9BJ",
      "lat": 53.3366,
      "lng": -3.40236,
      "distance": 18.3,
      "is_supermarket": false,
      "is_motorway": false,
      "unleaded": 148.9,
      "diesel": 175.9,
      "updated": "2026-03-29T17:46:37.000Z",
      "cached": false
    },
    {
      "name": "SAINSBURYS UPTON",
      "brand": "SAINSBURY'S",
      "address": "",
      "postcode": "CH49 6QG",
      "lat": 53.37986,
      "lng": -3.09998,
      "distance": 13.4,
      "is_supermarket": false,
      "is_motorway": false,
      "unleaded": 150.9,
      "diesel": 179.9,
      "updated": "2026-03-30T21:47:29.000Z",
      "cached": false
    },
    {
      "name": "SHELL NORTHOP",
      "brand": "SHELL",
      "address": "",
      "postcode": "CH7 6HB",
      "lat": 53.192913,
      "lng": -3.081794,
      "distance": 2.0,
      "is_supermarket": false,
      "is_motorway": false,
      "unleaded": 162.9,
      "diesel": 199.9,
      "updated": "2026-03-24T11:45:00.000Z",
      "cached": false
    },
    {
      "name": "SHELL NORTHOP HALL",
      "brand": "SHELL",
      "address": "",
      "postcode": "CH7 6HF",
      "lat": 53.197289,
      "lng": -3.088915,
      "distance": 2.4,
      "is_supermarket": false,
      "is_motorway": false,
      "unleaded": 162.9,
      "diesel": 199.9,
      "updated": "2026-03-24T11:45:00.000Z",
      "cached": false
    },
    {
      "name": "MFG STRAWBERRY",
      "brand": "BP",
      "address": "",
      "postcode": "CH66 2PY",
      "lat": 53.256833,
      "lng": -2.909397,
      "distance": 6.9,
      "is_supermarket": false,
      "is_motorway": false,
      "unleaded": 155.9,
      "diesel": 189.9,
      "updated": "2026-03-29T22:58:49.000Z",
      "cached": false
    },
    {
      "name": "SHELL SMITHDOWN ROAD",
      "brand": "SHELL",
      "address": "",
      "postcode": "L15 5AH",
      "lat": 53.38964,
      "lng": -2.928035,
      "distance": 14.5,
      "is_supermarket": false,
      "is_motorway": false,
      "unleaded": 154.9,
      "diesel": 199.9,
      "updated": "2026-03-24T11:45:00.000Z",
      "cached": false
    },
    {
      "name": "MFG MORRISONS LIVERPOOL SPEKE",
      "brand": "MORRISONS",
      "address": "",
      "postcode": "L24 2WZ",
      "lat": 53.346109,
      "lng": -2.838505,
      "distance": 13.5,
      "is_supermarket": false,
      "is_motorway": false,
      "unleaded": 148.9,
      "diesel": 179.9,
      "updated": "2026-03-29T21:43:30.000Z",
      "cached": false
    },
    {
      "name": "Stanley Service Station",
      "brand": "TEXACO",
      "address": "",
      "postcode": "L13 2EY",
      "lat": 53.4104059,
      "lng": -2.9249475,
      "distance": 15.9,
      "is_supermarket": false,
      "is_motorway": false,
      "unleaded": 157.9,
      "diesel": 218.9,
      "updated": "2026-03-30T14:39:28.000Z",
      "cached": false
    },
    {
      "name": "BP HARVEST ENERGY LAIRD STREET",
      "brand": "BP HARVEST ENERGY",
      "address": "",
      "postcode": "CH41 7AJ",
      "lat": 53.4007873,
      "lng": -3.0556847,
      "distance": 14.6,
      "is_supermarket": false,
      "is_motorway": false,
      "unleaded": 153.9,
      "diesel": 179.9,
      "updated": "2026-03-25T10:13:44.000Z",
      "cached": false
    },
    {
      "name": "Plas Acton Fuel Station",
      "brand": "Gulf",
      "address": "",
      "postcode": "LL12 8DU",
      "lat": 53.0701313,
      "lng": -2.9897412,
      "distance": 8.5,
      "is_supermarket": false,
      "is_motorway": false,
      "unleaded": 149.9,
      "diesel": 185.9,
      "updated": "2026-03-27T09:22:45.000Z",
      "cached": false
    },
    {
      "name": "ASDA COEDPOETH EXPRESS PETROL",
      "brand": "ASDA EXPRESS",
      "address": "",
      "postcode": "LL11 3UF",
      "lat": 53.0553979,
      "lng": -3.0743781,
      "distance": 9.5,
      "is_supermarket": false,
      "is_motorway": false,
      "unleaded": 156.9,
      "diesel": 199.9,
      "updated": "2026-03-30T13:02:12.000Z",
      "cached": false
    },
    {
      "name": "ASDA HOLT ROAD EXPRESS PETROL",
      "brand": "ESSO",
      "address": "",
      "postcode": "LL13 9SB",
      "lat": 53.061185,
      "lng": -2.953648,
      "distance": 9.5,
      "is_supermarket": false,
      "is_motorway": false,
      "unleaded": 157.9,
      "diesel": 211.9,
      "updated": "2026-03-30T20:33:10.000Z",
      "cached": false
    },
    {
      "name": "ASDA SINGING KETTLE S/STN EXPRESS PETROL",
      "brand": "BP",
      "address": "",
      "postcode": "CH8 8RD",
      "lat": 53.274981,
      "lng": -3.292738,
      "distance": 12.2,
      "is_supermarket": false,
      "is_motorway": true,
      "unleaded": 166.9,
      "diesel": 211.9,
      "updated": "2026-03-30T19:12:04.000Z",
      "cached": false
    },
    {
      "name": "ASDA TREFFYNNON EXPRESS PETROL",
      "brand": "ESSO",
      "address": "",
      "postcode": "CH8 7SG",
      "lat": 53.267,
      "lng": -3.216,
      "distance": 9.2,
      "is_supermarket": false,
      "is_motorway": false,
      "unleaded": 159.9,
      "diesel": 207.9,
      "updated": "2026-03-30T20:32:36.000Z",
      "cached": false
    },
    {
      "name": "RONTEC HOYLAKE",
      "brand": "ESSO",
      "address": "",
      "postcode": "CH47 0LA",
      "lat": 53.39785,
      "lng": -3.16973,
      "distance": 15.4,
      "is_supermarket": false,
      "is_motorway": false,
      "unleaded": 157.9,
      "diesel": 206.9,
      "updated": "2026-03-30T12:33:37.000Z",
      "cached": false
    },
    {
      "name": "ASDA WYLFA EXPRESS PETROL",
      "brand": "ESSO",
      "address": "",
      "postcode": "CH7 1UE",
      "lat": 53.166963,
      "lng": -3.133838,
      "distance": 4.5,
      "is_supermarket": false,
      "is_motorway": false,
      "unleaded": 154.9,
      "diesel": 204.9,
      "updated": "2026-03-30T20:41:32.000Z",
      "cached": false
    },
    {
      "name": "EG MOLD PFS",
      "brand": "EG ON THE MOVE",
      "address": "",
      "postcode": "CH7 1LB",
      "lat": 53.170418,
      "lng": -3.138778,
      "distance": 4.6,
      "is_supermarket": false,
      "is_motorway": false,
      "unleaded": 153.9,
      "diesel": 182.9,
      "updated": "2026-03-30T12:10:18.000Z",
      "cached": false
    },
    {
      "name": "EG PONTBLYDDYN PFS",
      "brand": "EG ON THE MOVE",
      "address": "",
      "postcode": "CH7 4HL",
      "lat": 53.137161,
      "lng": -3.083567,
      "distance": 4.2,
      "is_supermarket": false,
      "is_motorway": false,
      "unleaded": 155.9,
      "diesel": 183.9,
      "updated": "2026-03-30T12:21:49.000Z",
      "cached": false
    },
    {
      "name": "Dobshill Service Station",
      "brand": "Dobshill Service Station",
      "address": "",
      "postcode": "CH5 3LZ",
      "lat": 53.1636207,
      "lng": -3.039481,
      "distance": 1.8,
      "is_supermarket": false,
      "is_motorway": false,
      "unleaded": 153.9,
      "diesel": 202.9,
      "updated": "2026-03-30T12:20:47.000Z",
      "cached": false
    },
    {
      "name": "ASDA QUEENSFERRY",
      "brand": "ASDA",
      "address": "",
      "postcode": "CH5 1TP",
      "lat": 53.2049518,
      "lng": -3.0265271,
      "distance": 1.1,
      "is_supermarket": false,
      "is_motorway": false,
      "unleaded": 149.9,
      "diesel": 181.9,
      "updated": "2026-03-30T13:45:14.000Z",
      "cached": false
    },
    {
      "name": "ASDA QUAY EXPRESS PETROL",
      "brand": "ESSO",
      "address": "",
      "postcode": "CH5 4AS",
      "lat": 53.22449,
      "lng": -3.071442,
      "distance": 2.9,
      "is_supermarket": false,
      "is_motorway": false,
      "unleaded": 158.9,
      "diesel": 206.9,
      "updated": "2026-03-30T19:24:53.000Z",
      "cached": false
    },
    {
      "name": "ASDA DEESIDE EXPRESS PETROL",
      "brand": "BP",
      "address": "",
      "postcode": "CH5 2NS",
      "lat": 53.232092,
      "lng": -3.006867,
      "distance": 3.1,
      "is_supermarket": false,
      "is_motorway": false,
      "unleaded": 157.9,
      "diesel": 211.9,
      "updated": "2026-03-30T19:20:48.000Z",
      "cached": false
    },
    {
      "name": "ASDA WREXHAM ROAD EXPRESS PETROL",
      "brand": "BP",
      "address": "",
      "postcode": "CH4 9DE",
      "lat": 53.162955,
      "lng": -2.908206,
      "distance": 5.5,
      "is_supermarket": false,
      "is_motorway": false,
      "unleaded": 155.9,
      "diesel": 209.9,
      "updated": "2026-03-30T20:45:13.000Z",
      "cached": false
    },
    {
      "name": "ASDA PARKGATE EXPRESS PETROL",
      "brand": "ESSO",
      "address": "",
      "postcode": "CH1 4BE",
      "lat": 53.2043,
      "lng": -2.9023,
      "distance": 5.5,
      "is_supermarket": false,
      "is_motorway": false,
      "unleaded": 154.9,
      "diesel": 203.9,
      "updated": "2026-03-30T19:16:53.000Z",
      "cached": false
    },
    {
      "name": "ASDA RED ENSIGN EXPRESS PETROL",
      "brand": "BP",
      "address": "",
      "postcode": "CH1 6JS",
      "lat": 53.232995,
      "lng": -2.942376,
      "distance": 4.8,
      "is_supermarket": false,
      "is_motorway": true,
      "unleaded": 167.9,
      "diesel": 211.9,
      "updated": "2026-03-30T19:21:19.000Z",
      "cached": false
    },
    {
      "name": "COSTCO WHOLESALE CHESTER",
      "brand": "COSTCO WHOLESALE",
      "address": "",
      "postcode": "CH1 6LT",
      "lat": 53.24496,
      "lng": -2.93034,
      "distance": 5.7,
      "is_supermarket": false,
      "is_motorway": false,
      "unleaded": 145.9,
      "diesel": 172.9,
      "updated": "2026-03-30T14:34:34.000Z",
      "cached": false
    },
    {
      "name": "ASDA HANDBRIDGE EXPRESS PETROL",
      "brand": "ASDA EXPRESS",
      "address": "",
      "postcode": "CH4 7JF",
      "lat": 53.183942,
      "lng": -2.887504,
      "distance": 6.1,
      "is_supermarket": false,
      "is_motorway": false,
      "unleaded": 155.9,
      "diesel": 202.9,
      "updated": "2026-03-30T11:51:09.000Z",
      "cached": false
    },
    {
      "name": "EG MOSTON PFS",
      "brand": "EG ON THE MOVE",
      "address": "",
      "postcode": "CH2 4BA",
      "lat": 53.226651,
      "lng": -2.894146,
      "distance": 6.3,
      "is_supermarket": false,
      "is_motorway": false,
      "unleaded": null,
      "diesel": null,
      "updated": null,
      "cached": false
    },
    {
      "name": "Gordale Service Station",
      "brand": "Gordale Service Station",
      "address": "",
      "postcode": "CH64 8TF",
      "lat": 53.2741984,
      "lng": -3.0014083,
      "distance": 6.0,
      "is_supermarket": false,
      "is_motorway": false,
      "unleaded": 149.9,
      "diesel": 179.9,
      "updated": "2026-03-27T07:10:42.000Z",
      "cached": false
    },
    {
      "name": "SPITAL SF CONNECT",
      "brand": "BP",
      "address": "",
      "postcode": "CH63 3EL",
      "lat": 53.34132,
      "lng": -3.00749,
      "distance": 10.5,
      "is_supermarket": false,
      "is_motorway": false,
      "unleaded": 148.9,
      "diesel": 199.9,
      "updated": "2026-03-29T11:00:08.000Z",
      "cached": false
    },
    {
      "name": "RONTEC BEBINGTON",
      "brand": "BP",
      "address": "",
      "postcode": "CH63 7RD",
      "lat": 53.34781,
      "lng": -2.99834,
      "distance": 11.0,
      "is_supermarket": false,
      "is_motorway": false,
      "unleaded": 149.9,
      "diesel": 186.9,
      "updated": "2026-03-30T11:47:59.000Z",
      "cached": false
    },
    {
      "name": "ASDA ARROWE PARK SUPERSTORE",
      "brand": "ASDA",
      "address": "",
      "postcode": "CH49 5PD",
      "lat": 53.3700696,
      "lng": -3.0784032,
      "distance": 12.6,
      "is_supermarket": false,
      "is_motorway": false,
      "unleaded": 150.7,
      "diesel": 178.7,
      "updated": "2026-03-30T17:58:40.000Z",
      "cached": false
    },
    {
      "name": "ASDA MORETON EXPRESS PETROL",
      "brand": "ESSO",
      "address": "",
      "postcode": "CH46 9PZ",
      "lat": 53.401,
      "lng": -3.107,
      "distance": 14.9,
      "is_supermarket": false,
      "is_motorway": false,
      "unleaded": 157.9,
      "diesel": 204.9,
      "updated": "2026-03-30T14:32:36.000Z",
      "cached": false
    },
    {
      "name": "ASDA LAIRDS EXPRESS PETROL",
      "brand": "ESSO",
      "address": "",
      "postcode": "CH41 9BW",
      "lat": 53.379868,
      "lng": -3.01265,
      "distance": 13.1,
      "is_supermarket": false,
      "is_motorway": false,
      "unleaded": 156.9,
      "diesel": 206.9,
      "updated": "2026-03-30T19:18:31.000Z",
      "cached": false
    },
    {
      "name": "ASDA GREENLANE EXPRESS PETROL",
      "brand": "ESSO",
      "address": "",
      "postcode": "CH41 9AZ",
      "lat": 53.384,
      "lng": -3.015,
      "distance": 13.4,
      "is_supermarket": false,
      "is_motorway": false,
      "unleaded": 158.9,
      "diesel": 206.9,
      "updated": "2026-03-30T19:16:10.000Z",
      "cached": false
    },
    {
      "name": "ASDA LISCARD SUPERSTORE",
      "brand": "ASDA",
      "address": "",
      "postcode": "CH45 4NZ",
      "lat": 53.4242714,
      "lng": -3.049059,
      "distance": 16.2,
      "is_supermarket": false,
      "is_motorway": false,
      "unleaded": 152.9,
      "diesel": 177.9,
      "updated": "2026-03-30T14:02:52.000Z",
      "cached": false
    },
    {
      "name": "COSTCO WHOLESALE LIVERPOOL",
      "brand": "COSTCO WHOLESALE",
      "address": "",
      "postcode": "L3 7HY",
      "lat": 53.41303,
      "lng": -2.99733,
      "distance": 15.5,
      "is_supermarket": false,
      "is_motorway": false,
      "unleaded": 143.9,
      "diesel": 168.9,
      "updated": "2026-03-30T14:25:38.000Z",
      "cached": false
    },
    {
      "name": "EG CITY SERVICES LIVERPOOL PFS",
      "brand": "EG ON THE MOVE",
      "address": "",
      "postcode": "L3 7AT",
      "lat": 53.417318,
      "lng": -2.996594,
      "distance": 15.8,
      "is_supermarket": false,
      "is_motorway": false,
      "unleaded": 152.9,
      "diesel": 201.9,
      "updated": "2026-03-30T12:20:22.000Z",
      "cached": false
    },
    {
      "name": "ASDA ELLESMERE PORT EXPRESS PETROL",
      "brand": "ESSO",
      "address": "",
      "postcode": "CH65 6TF",
      "lat": 53.278,
      "lng": -2.904,
      "distance": 8.1,
      "is_supermarket": false,
      "is_motorway": false,
      "unleaded": 156.9,
      "diesel": 202.9,
      "updated": "2026-03-30T19:05:34.000Z",
      "cached": false
    },
    {
      "name": "Ellesmere Port Service Station",
      "brand": "Ellesmere Port Service Station",
      "address": "",
      "postcode": "CH65 3AA",
      "lat": 53.2898073,
      "lng": -2.9077945,
      "distance": 8.6,
      "is_supermarket": false,
      "is_motorway": false,
      "unleaded": 156.9,
      "diesel": 202.9,
      "updated": "2026-03-30T12:11:29.000Z",
      "cached": false
    },
    {
      "name": "ASDA BROMBOROUGH SUPERSTORE",
      "brand": "ASDA",
      "address": "",
      "postcode": "CH62 3QP",
      "lat": 53.3406587,
      "lng": -2.9764509,
      "distance": 10.7,
      "is_supermarket": false,
      "is_motorway": false,
      "unleaded": 149.9,
      "diesel": 182.7,
      "updated": "2026-03-30T14:01:22.000Z",
      "cached": false
    },
    {
      "name": "EG SPEKE PFS",
      "brand": "EG ON THE MOVE",
      "address": "",
      "postcode": "L24 9HZ",
      "lat": 53.349059,
      "lng": -2.861843,
      "distance": 13.1,
      "is_supermarket": false,
      "is_motorway": false,
      "unleaded": 149.9,
      "diesel": 202.9,
      "updated": "2026-03-30T11:38:40.000Z",
      "cached": false
    },
    {
      "name": "ASDA AIGBURTH ROAD EXPRESS PETROL",
      "brand": "ESSO",
      "address": "",
      "postcode": "L17 4JP",
      "lat": 53.380525,
      "lng": -2.952403,
      "distance": 13.6,
      "is_supermarket": false,
      "is_motorway": false,
      "unleaded": 156.9,
      "diesel": 204.9,
      "updated": "2026-03-30T18:03:35.000Z",
      "cached": false
    },
    {
      "name": "RONTEC ISLINGTON",
      "brand": "BP",
      "address": "",
      "postcode": "L3 8PP",
      "lat": 53.41143,
      "lng": -2.97069,
      "distance": 15.5,
      "is_supermarket": false,
      "is_motorway": false,
      "unleaded": 152.9,
      "diesel": 185.9,
      "updated": "2026-03-30T11:29:49.000Z",
      "cached": false
    },
    {
      "name": "ASDA BRECK ROAD SUPERSTORE",
      "brand": "ASDA",
      "address": "",
      "postcode": "L6 5DR",
      "lat": 53.4208486,
      "lng": -2.9568654,
      "distance": 16.3,
      "is_supermarket": false,
      "is_motorway": false,
      "unleaded": 147.9,
      "diesel": 177.7,
      "updated": "2026-03-30T13:49:24.000Z",
      "cached": false
    },
    {
      "name": "RONTEC ANFIELD",
      "brand": "ESSO",
      "address": "",
      "postcode": "L4 0UE",
      "lat": 53.42696,
      "lng": -2.95789,
      "distance": 16.7,
      "is_supermarket": false,
      "is_motorway": false,
      "unleaded": 151.9,
      "diesel": 187.9,
      "updated": "2026-03-30T12:11:14.000Z",
      "cached": false
    },
    {
      "name": "ASDA SEFTON PARK SUPERSTORE",
      "brand": "ASDA",
      "address": "",
      "postcode": "L15 3JR",
      "lat": 53.3941578,
      "lng": -2.9370567,
      "distance": 14.7,
      "is_supermarket": false,
      "is_motorway": false,
      "unleaded": 149.9,
      "diesel": 177.9,
      "updated": "2026-03-30T18:06:18.000Z",
      "cached": false
    },
    {
      "name": "EG LARKHILL PFS",
      "brand": "EG ON THE MOVE",
      "address": "",
      "postcode": "L13 0AR",
      "lat": 53.42872,
      "lng": -2.919664,
      "distance": 17.1,
      "is_supermarket": false,
      "is_motorway": false,
      "unleaded": 149.9,
      "diesel": 201.9,
      "updated": "2026-03-30T11:32:35.000Z",
      "cached": false
    },
    {
      "name": "ASDA HUNTS CROSS SUPERSTORE",
      "brand": "ASDA",
      "address": "",
      "postcode": "L24 9WA",
      "lat": 53.3582927,
      "lng": -2.865599,
      "distance": 13.5,
      "is_supermarket": false,
      "is_motorway": false,
      "unleaded": 148.6,
      "diesel": 176.4,
      "updated": "2026-03-30T13:56:39.000Z",
      "cached": false
    },
    {
      "name": "ASDA HUYTON SUPERCENTRE",
      "brand": "ASDA",
      "address": "",
      "postcode": "L36 7TX",
      "lat": 53.41144,
      "lng": -2.84283,
      "distance": 17.2,
      "is_supermarket": false,
      "is_motorway": false,
      "unleaded": 146.7,
      "diesel": 176.7,
      "updated": "2026-03-30T18:22:48.000Z",
      "cached": false
    },
    {
      "name": "EG KNOWSLEY EARLSFIELD PFS",
      "brand": "SHELL",
      "address": "",
      "postcode": "L34 4BE",
      "lat": 53.42786,
      "lng": -2.8270519,
      "distance": 18.5,
      "is_supermarket": false,
      "is_motorway": false,
      "unleaded": 154.9,
      "diesel": 209.9,
      "updated": "2026-03-30T11:27:29.000Z",
      "cached": false
    },
    {
      "name": "ASDA GOWY EXPRESS PETROL",
      "brand": "ESSO",
      "address": "",
      "postcode": "CH3 7HN",
      "lat": 53.2,
      "lng": -2.802,
      "distance": 9.6,
      "is_supermarket": false,
      "is_motorway": false,
      "unleaded": 160.9,
      "diesel": 210.9,
      "updated": "2026-03-30T19:16:06.000Z",
      "cached": false
    },
    {
      "name": "EG BEACON 62 PFS",
      "brand": "SHELL",
      "address": "",
      "postcode": "L35 1QT",
      "lat": 53.39862,
      "lng": -2.81146,
      "distance": 17.1,
      "is_supermarket": false,
      "is_motorway": false,
      "unleaded": 154.9,
      "diesel": 209.9,
      "updated": "2026-03-30T11:28:11.000Z",
      "cached": false
    },
    {
      "name": "ASDA WALTON SUPERSTORE",
      "brand": "ASDA",
      "address": "",
      "postcode": "L4 9XU",
      "lat": 53.4408839,
      "lng": -2.9394707,
      "distance": 17.8,
      "is_supermarket": false,
      "is_motorway": false,
      "unleaded": 148.9,
      "diesel": 177.7,
      "updated": "2026-03-30T14:01:59.000Z",
      "cached": false
    },
    {
      "name": "HILLCREST MOTOR CO LTD",
      "brand": "GULF",
      "address": "",
      "postcode": "CH8 7SJ",
      "lat": 53.26136,
      "lng": -3.20879,
      "distance": 8.8,
      "is_supermarket": true,
      "is_motorway": false,
      "unleaded": 154.9,
      "diesel": 179.9,
      "updated": "2026-03-25T12:46:18.000Z",
      "cached": false
    },
    {
      "name": "BIRKENHEAD BIDSTON MOSS EXTRA - PETROL FILLING STATION",
      "brand": "TESCO",
      "address": "",
      "postcode": "CH43 7AA",
      "lat": 53.40799,
      "lng": -3.07026,
      "distance": 15.1,
      "is_supermarket": false,
      "is_motorway": false,
      "unleaded": 148.9,
      "diesel": 175.9,
      "updated": "2026-03-30T16:05:10.000Z",
      "cached": false
    },
    {
      "name": "SHELL HAPSFORD MWSA",
      "brand": "SHELL",
      "address": "",
      "postcode": "CH2 4QZ",
      "lat": 53.268277,
      "lng": -2.801322,
      "distance": 11.0,
      "is_supermarket": false,
      "is_motorway": true,
      "unleaded": 168.9,
      "diesel": 199.9,
      "updated": "2026-03-24T11:45:00.000Z",
      "cached": false
    },
    {
      "name": "SHELL LITTLE WAITROSE HINDERTON",
      "brand": "SHELL",
      "address": "",
      "postcode": "CH64 7TA",
      "lat": 53.294253,
      "lng": -3.042575,
      "distance": 7.2,
      "is_supermarket": false,
      "is_motorway": false,
      "unleaded": 156.9,
      "diesel": 199.9,
      "updated": "2026-03-24T11:45:00.000Z",
      "cached": false
    },
    {
      "name": "SHELL CO-OP MOLD",
      "brand": "SHELL",
      "address": "",
      "postcode": "CH7 6LQ",
      "lat": 53.181156,
      "lng": -3.111588,
      "distance": 3.3,
      "is_supermarket": false,
      "is_motorway": false,
      "unleaded": 159.9,
      "diesel": 199.9,
      "updated": "2026-03-24T12:00:00.000Z",
      "cached": false
    },
    {
      "name": "BR Flint",
      "brand": "Spar",
      "address": "",
      "postcode": "CH6 5DZ",
      "lat": 53.2443473,
      "lng": -3.1222575,
      "distance": 5.3,
      "is_supermarket": false,
      "is_motorway": false,
      "unleaded": 153.9,
      "diesel": 189.9,
      "updated": "2026-03-30T12:56:29.000Z",
      "cached": false
    },
    {
      "name": "Esso - Saltney Service Station",
      "brand": "Saltney Service Station",
      "address": "",
      "postcode": "CH4 8SJ",
      "lat": 53.178903,
      "lng": -2.922518,
      "distance": 4.7,
      "is_supermarket": false,
      "is_motorway": false,
      "unleaded": 152.9,
      "diesel": 189.9,
      "updated": "2026-03-28T14:55:04.000Z",
      "cached": false
    },
    {
      "name": "LIVERPOOL ALLERTON RD SUPERSTORE - PETROL FILLING STATION",
      "brand": "TESCO",
      "address": "",
      "postcode": "L18 6HF",
      "lat": 53.38121,
      "lng": -2.90916,
      "distance": 14.2,
      "is_supermarket": false,
      "is_motorway": false,
      "unleaded": 146.9,
      "diesel": 172.9,
      "updated": "2026-03-30T06:06:32.000Z",
      "cached": false
    },
    {
      "name": "BP Priory Road Service Station",
      "brand": "BP Priory Road Service Station",
      "address": "",
      "postcode": "L4 2SL",
      "lat": 53.4342322,
      "lng": -2.9561718,
      "distance": 17.2,
      "is_supermarket": false,
      "is_motorway": false,
      "unleaded": 149.9,
      "diesel": 194.9,
      "updated": "2026-03-26T14:10:25.000Z",
      "cached": false
    },
    {
      "name": "Esso - Queensferry Service Station",
      "brand": "Queensferry Service Station",
      "address": "",
      "postcode": "CH5 1QD",
      "lat": 53.2088991,
      "lng": -3.0326318,
      "distance": 1.3,
      "is_supermarket": false,
      "is_motorway": false,
      "unleaded": 152.9,
      "diesel": 185.9,
      "updated": "2026-03-23T14:25:02.000Z",
      "cached": false
    },
    {
      "name": "MFG WALLASEY VILLAGE",
      "brand": "BP",
      "address": "",
      "postcode": "CH44 2BY",
      "lat": 53.422893,
      "lng": -3.065875,
      "distance": 16.1,
      "is_supermarket": false,
      "is_motorway": false,
      "unleaded": 155.9,
      "diesel": 199.9,
      "updated": "2026-03-28T00:27:20.000Z",
      "cached": false
    },
    {
      "name": "Knowsley Lane Filling Station",
      "brand": "Knowsley Lane Filling Station",
      "address": "",
      "postcode": "L34 9EF",
      "lat": 53.4499864,
      "lng": -2.8546286,
      "distance": 19.4,
      "is_supermarket": true,
      "is_motorway": false,
      "unleaded": 153.9,
      "diesel": 199.9,
      "updated": "2026-03-23T19:39:42.000Z",
      "cached": false
    },
    {
      "name": "PRESCOT EXTRA - PETROL FILLING STATION",
      "brand": "TESCO",
      "address": "",
      "postcode": "L34 5NQ",
      "lat": 53.42654,
      "lng": -2.80358,
      "distance": 18.9,
      "is_supermarket": false,
      "is_motorway": false,
      "unleaded": 143.9,
      "diesel": 172.9,
      "updated": "2026-03-30T15:16:15.000Z",
      "cached": false
    },
    {
      "name": "SHELL DERBY ROAD",
      "brand": "SHELL",
      "address": "",
      "postcode": "L20 1BP",
      "lat": 53.447551,
      "lng": -3.001145,
      "distance": 17.8,
      "is_supermarket": false,
      "is_motorway": false,
      "unleaded": 151.9,
      "diesel": 199.9,
      "updated": "2026-03-24T11:40:00.000Z",
      "cached": false
    },
    {
      "name": "BP CHILDWALL VALLEY SERVICE STATION",
      "brand": "BP CHILDWALL VALLEY SERVICE STATION",
      "address": "",
      "postcode": "L25 2RJ",
      "lat": 53.3902412,
      "lng": -2.8503635,
      "distance": 15.8,
      "is_supermarket": true,
      "is_motorway": false,
      "unleaded": 149.9,
      "diesel": 199.9,
      "updated": "2026-03-30T09:42:16.000Z",
      "cached": false
    },
    {
      "name": "SHELL HUNTS CROSS",
      "brand": "SHELL",
      "address": "",
      "postcode": "L25 0NS",
      "lat": 53.359789,
      "lng": -2.854618,
      "distance": 13.9,
      "is_supermarket": false,
      "is_motorway": false,
      "unleaded": 151.9,
      "diesel": 199.9,
      "updated": "2026-03-27T15:00:00.000Z",
      "cached": false
    },
    {
      "name": "MFG COLESHILL",
      "brand": "SHELL",
      "address": "",
      "postcode": "CH6 5RR",
      "lat": 53.253768,
      "lng": -3.14176,
      "distance": 6.3,
      "is_supermarket": false,
      "is_motorway": false,
      "unleaded": 153.9,
      "diesel": 199.9,
      "updated": "2026-03-22T09:50:34.000Z",
      "cached": false
    },
    {
      "name": "FLINT SERVICE STATION",
      "brand": "JET",
      "address": "",
      "postcode": "CH6 5QG",
      "lat": 53.23824,
      "lng": -3.13773,
      "distance": 5.5,
      "is_supermarket": false,
      "is_motorway": false,
      "unleaded": 154.9,
      "diesel": 199.9,
      "updated": "2026-03-27T13:00:22.000Z",
      "cached": false
    },
    {
      "name": "Prescott Service Station",
      "brand": "TEXACO",
      "address": "",
      "postcode": "L7 0JD",
      "lat": 53.4140563,
      "lng": -2.9327723,
      "distance": 16.0,
      "is_supermarket": false,
      "is_motorway": false,
      "unleaded": 156.9,
      "diesel": 184.9,
      "updated": "2026-03-27T18:12:31.000Z",
      "cached": false
    },
    {
      "name": "MOLD SUPERSTORE - PETROL FILLING STATION",
      "brand": "TESCO",
      "address": "",
      "postcode": "CH7 1UB",
      "lat": 53.16708,
      "lng": -3.13754,
      "distance": 4.6,
      "is_supermarket": false,
      "is_motorway": false,
      "unleaded": 152.9,
      "diesel": 180.9,
      "updated": "2026-03-30T15:14:30.000Z",
      "cached": false
    },
    {
      "name": "BP ATLANTIC SERVICE STATION",
      "brand": "BP ATLANTIC SERVICE STATION",
      "address": "",
      "postcode": "L20 1AD",
      "lat": 53.4476476,
      "lng": -3.0012967,
      "distance": 17.9,
      "is_supermarket": true,
      "is_motorway": false,
      "unleaded": 149.9,
      "diesel": 199.9,
      "updated": "2026-03-30T09:40:51.000Z",
      "cached": false
    },
    {
      "name": "BP SCOTLAND ROAD SERVICE STATION",
      "brand": "BP SCOTLAND ROAD SERVICE STATION",
      "address": "",
      "postcode": "L5 5AQ",
      "lat": 53.42122,
      "lng": -2.9811903,
      "distance": 16.1,
      "is_supermarket": true,
      "is_motorway": false,
      "unleaded": 149.9,
      "diesel": 199.9,
      "updated": "2026-03-30T09:41:35.000Z",
      "cached": false
    },
    {
      "name": "MFG HALEWOOD",
      "brand": "ESSO",
      "address": "",
      "postcode": "L26 1UN",
      "lat": 53.357973,
      "lng": -2.834598,
      "distance": 14.2,
      "is_supermarket": false,
      "is_motorway": false,
      "unleaded": 153.9,
      "diesel": 199.9,
      "updated": "2026-03-27T23:45:32.000Z",
      "cached": false
    },
    {
      "name": "SHELL GAYTON",
      "brand": "SHELL",
      "address": "",
      "postcode": "CH60 3RY",
      "lat": 53.322022,
      "lng": -3.084409,
      "distance": 9.4,
      "is_supermarket": false,
      "is_motorway": false,
      "unleaded": 158.9,
      "diesel": 199.9,
      "updated": "2026-03-23T15:25:00.000Z",
      "cached": false
    },
    {
      "name": "BROUGHTON CHESTER EXTRA - PETROL FILLING STATION",
      "brand": "TESCO",
      "address": "",
      "postcode": "CH4 0DP",
      "lat": 53.16935,
      "lng": -2.9739,
      "distance": 2.8,
      "is_supermarket": false,
      "is_motorway": false,
      "unleaded": 147.9,
      "diesel": 179.9,
      "updated": "2026-03-30T15:29:51.000Z",
      "cached": false
    },
    {
      "name": "Rhydymwyn Service Station",
      "brand": "Rhydymwyn Service Station",
      "address": "",
      "postcode": "CH7 5HE",
      "lat": 53.1928694,
      "lng": -3.1889389,
      "distance": 6.4,
      "is_supermarket": false,
      "is_motorway": false,
      "unleaded": 149.9,
      "diesel": 179.8,
      "updated": "2026-03-30T12:54:29.000Z",
      "cached": false
    },
    {
      "name": "BP HARVEST ENERGY HOYLAKE",
      "brand": "BP HARVEST ENERGY",
      "address": "",
      "postcode": "CH46 5NA",
      "lat": 53.3961782,
      "lng": -3.1318942,
      "distance": 14.8,
      "is_supermarket": false,
      "is_motorway": false,
      "unleaded": 156.9,
      "diesel": 201.9,
      "updated": "2026-03-30T10:39:56.000Z",
      "cached": false
    },
    {
      "name": "SAINSBURYS BIRKENHEAD",
      "brand": "SAINSBURY'S",
      "address": "",
      "postcode": "CH42 8PQ",
      "lat": 53.37472,
      "lng": -3.04765,
      "distance": 12.8,
      "is_supermarket": false,
      "is_motorway": false,
      "unleaded": 149.9,
      "diesel": 178.9,
      "updated": "2026-03-30T21:48:24.000Z",
      "cached": false
    },
    {
      "name": "SAINSBURYS KINGS ROAD BEBINGTON",
      "brand": "SAINSBURY'S",
      "address": "",
      "postcode": "CH63 8PZ",
      "lat": 53.35656,
      "lng": -3.02542,
      "distance": 11.5,
      "is_supermarket": false,
      "is_motorway": false,
      "unleaded": 148.9,
      "diesel": 178.9,
      "updated": "2026-03-30T22:54:30.000Z",
      "cached": false
    },
    {
      "name": "SHELL UPTON",
      "brand": "SHELL",
      "address": "",
      "postcode": "CH49 0UE",
      "lat": 53.381566,
      "lng": -3.09902,
      "distance": 13.5,
      "is_supermarket": false,
      "is_motorway": false,
      "unleaded": 155.9,
      "diesel": 199.9,
      "updated": "2026-03-27T15:50:00.000Z",
      "cached": false
    },
    {
      "name": "TARBOCK WOODLANDS ESSO EXPRESS",
      "brand": "ESSO",
      "address": "",
      "postcode": "L35 1QY",
      "lat": 53.39817,
      "lng": -2.81805,
      "distance": 16.9,
      "is_supermarket": false,
      "is_motorway": false,
      "unleaded": 150.9,
      "diesel": 195.9,
      "updated": "2026-03-30T15:21:09.000Z",
      "cached": false
    },
    {
      "name": "TGC - RUTHIN",
      "brand": "TEXACO",
      "address": "",
      "postcode": "LL151NB",
      "lat": 53.1134,
      "lng": -3.31576,
      "distance": 12.8,
      "is_supermarket": false,
      "is_motorway": false,
      "unleaded": 154.9,
      "diesel": 205.9,
      "updated": "2026-03-28T10:25:54.000Z",
      "cached": false
    },
    {
      "name": "MFG MORRISONS ELLESMERE PORT",
      "brand": "MORRISONS",
      "address": "",
      "postcode": "CH65 6RU",
      "lat": 53.273606,
      "lng": -2.910218,
      "distance": 7.7,
      "is_supermarket": false,
      "is_motorway": false,
      "unleaded": 149.9,
      "diesel": 179.9,
      "updated": "2026-03-29T21:48:57.000Z",
      "cached": false
    },
    {
      "name": "SHELL WIRRAL WAY",
      "brand": "SHELL",
      "address": "",
      "postcode": "CH42 0HA",
      "lat": 53.384042,
      "lng": -3.032912,
      "distance": 13.4,
      "is_supermarket": false,
      "is_motorway": false,
      "unleaded": 159.9,
      "diesel": 199.9,
      "updated": "2026-03-23T17:22:00.000Z",
      "cached": false
    },
    {
      "name": "SHELL HOOLE ROAD",
      "brand": "SHELL",
      "address": "",
      "postcode": "CH2 3NH",
      "lat": 53.199234,
      "lng": -2.878935,
      "distance": 6.4,
      "is_supermarket": false,
      "is_motorway": false,
      "unleaded": 159.9,
      "diesel": 199.9,
      "updated": "2026-03-24T11:45:00.000Z",
      "cached": false
    },
    {
      "name": "BP HARVEST ENERGY SPEKE",
      "brand": "BP HARVEST ENERGY",
      "address": "",
      "postcode": "L24 9HD",
      "lat": 53.3548148,
      "lng": -2.8647401,
      "distance": 13.3,
      "is_supermarket": false,
      "is_motorway": false,
      "unleaded": 140.9,
      "diesel": 163.9,
      "updated": "2026-03-17T11:30:53.000Z",
      "cached": false
    },
    {
      "name": "Caergwrle Filling Station",
      "brand": "Gulf Caergwrle",
      "address": "",
      "postcode": "LL12 9LP",
      "lat": 53.1117892,
      "lng": -3.0416579,
      "distance": 5.4,
      "is_supermarket": false,
      "is_motorway": false,
      "unleaded": 145.9,
      "diesel": 174.9,
      "updated": "2026-03-24T10:39:54.000Z",
      "cached": false
    },
    {
      "name": "SHELL MERSEY VIEW",
      "brand": "SHELL",
      "address": "",
      "postcode": "CH65 4AX",
      "lat": 53.284662,
      "lng": -2.89441,
      "distance": 8.7,
      "is_supermarket": false,
      "is_motorway": false,
      "unleaded": 157.9,
      "diesel": 199.9,
      "updated": "2026-03-24T11:46:00.000Z",
      "cached": false
    },
    {
      "name": "Lobitos",
      "brand": "Esso",
      "address": "",
      "postcode": "CH8 9JS",
      "lat": 53.342343,
      "lng": -3.3371063,
      "distance": 16.4,
      "is_supermarket": false,
      "is_motorway": false,
      "unleaded": 155.9,
      "diesel": 185.9,
      "updated": "2026-03-27T07:04:47.000Z",
      "cached": false
    },
    {
      "name": "SAINSBURYS WREXHAM",
      "brand": "SAINSBURY'S",
      "address": "",
      "postcode": "LL11 2BA",
      "lat": 53.05571,
      "lng": -3.00904,
      "distance": 9.3,
      "is_supermarket": false,
      "is_motorway": false,
      "unleaded": 148.9,
      "diesel": 176.9,
      "updated": "2026-03-30T22:02:42.000Z",
      "cached": false
    },
    {
      "name": "GRESFORD SERVICE STATION",
      "brand": "TEXACO",
      "address": "",
      "postcode": "LL12 8TL",
      "lat": 53.08468,
      "lng": -2.97378,
      "distance": 7.7,
      "is_supermarket": false,
      "is_motorway": false,
      "unleaded": 152.9,
      "diesel": 194.9,
      "updated": "2026-03-27T10:50:10.000Z",
      "cached": false
    },
    {
      "name": "BR Buckley",
      "brand": "Spar",
      "address": "",
      "postcode": "CH7 2NJ",
      "lat": 53.1685643,
      "lng": -3.0885872,
      "distance": 2.7,
      "is_supermarket": false,
      "is_motorway": false,
      "unleaded": 152.9,
      "diesel": 182.9,
      "updated": "2026-03-28T11:04:04.000Z",
      "cached": false
    },
    {
      "name": "MFG PRESTATYN",
      "brand": "BP",
      "address": "",
      "postcode": "LL19 7HA",
      "lat": 53.3376,
      "lng": -3.40742,
      "distance": 18.5,
      "is_supermarket": false,
      "is_motorway": false,
      "unleaded": 154.9,
      "diesel": 199.9,
      "updated": "2026-03-27T23:35:33.000Z",
      "cached": false
    },
    {
      "name": "SHELL CRESCENT",
      "brand": "SHELL",
      "address": "",
      "postcode": "L36 3RN",
      "lat": 53.420064,
      "lng": -2.849171,
      "distance": 17.6,
      "is_supermarket": false,
      "is_motorway": false,
      "unleaded": 154.9,
      "diesel": 199.9,
      "updated": "2026-03-24T11:45:00.000Z",
      "cached": false
    },
    {
      "name": "TEXACO ",
      "brand": "TEXACO",
      "address": "Park Road, Ruthin, Denbighshire",
      "postcode": "LL15 1NB",
      "lat": 53.1135285,
      "lng": -3.3177116,
      "distance": 12.9,
      "is_supermarket": false,
      "is_motorway": false,
      "unleaded": 154.9,
      "diesel": 184.9,
      "updated": "2026-03-31T06:02:53.431536+00:00",
      "cached": false
    },
    {
      "name": "SMITHY VIEW SERVICE STATION ACTON",
      "brand": "SMITHY VIEW SERVICE STATION ACTON",
      "address": "",
      "postcode": "",
      "lat": 0.0,
      "lng": 0.0,
      "distance": 0,
      "is_supermarket": false,
      "is_motorway": false,
      "unleaded": 125.9,
      "diesel": 134.9,
      "updated": "2026-03-13T00:00:00+00:00",
      "cached": true
    },
    {
      "name": "Barnhills of Broxton",
      "brand": "GULF",
      "address": "BROXTON GARAGE, WHITCHURCH ROAD, BROXTON, CHESTER, CH3 9JR, CHESTER, CH3 9JR",
      "postcode": "",
      "lat": 0.0,
      "lng": 0.0,
      "distance": 0,
      "is_supermarket": false,
      "is_motorway": false,
      "unleaded": 130.9,
      "diesel": 138.9,
      "updated": "2026-03-13T00:00:00+00:00",
      "cached": true
    },
    {
      "name": "MFG BEECHLEY",
      "brand": "TEXACO",
      "address": "KINGSMILL ROAD, HIGHTOWN, LL13 8NH",
      "postcode": "",
      "lat": 0.0,
      "lng": 0.0,
      "distance": 0,
      "is_supermarket": false,
      "is_motorway": false,
      "unleaded": 132.9,
      "diesel": 141.9,
      "updated": "2026-03-13T00:00:00+00:00",
      "cached": true
    },
    {
      "name": "MFG MORRISONS WREXHAM",
      "brand": "MORRISONS",
      "address": "RUTHIN ROAD/CENTENARY ROAD, WREXHAM, LL13 7TU",
      "postcode": "",
      "lat": 0.0,
      "lng": 0.0,
      "distance": 0,
      "is_supermarket": false,
      "is_motorway": false,
      "unleaded": 135.9,
      "diesel": 148.9,
      "updated": "2026-03-13T00:00:00+00:00",
      "cached": true
    },
    {
      "name": "WREXHAM EXTRA - PETROL FILLING STATION",
      "brand": "TESCO",
      "address": "CRESCENT ROAD, WREXHAM, LL13 8HF",
      "postcode": "",
      "lat": 0.0,
      "lng": 0.0,
      "distance": 0,
      "is_supermarket": false,
      "is_motorway": false,
      "unleaded": 134.9,
      "diesel": 145.9,
      "updated": "2026-03-13T00:00:00+00:00",
      "cached": true
    },
    {
      "name": "MFG MORRISONS RHYL",
      "brand": "MORRISONS",
      "address": "MARSH ROAD, RHYL, LL18 2DF",
      "postcode": "",
      "lat": 0.0,
      "lng": 0.0,
      "distance": 0,
      "is_supermarket": false,
      "is_motorway": false,
      "unleaded": 138.9,
      "diesel": 154.9,
      "updated": "2026-03-13T00:00:00+00:00",
      "cached": true
    },
    {
      "name": "RONTEC RUABON",
      "brand": "ESSO",
      "address": "RUABON BY PASS, WREXHAM, LL14 6YY",
      "postcode": "",
      "lat": 0.0,
      "lng": 0.0,
      "distance": 0,
      "is_supermarket": false,
      "is_motorway": false,
      "unleaded": 137.9,
      "diesel": 152.9,
      "updated": "2026-03-13T00:00:00+00:00",
      "cached": true
    },
    {
      "name": "RONTEC WREXHAM",
      "brand": "BP",
      "address": "WREXHAM ROAD, JOHNSTOWN, WREXHAM, LL14 1PA",
      "postcode": "",
      "lat": 0.0,
      "lng": 0.0,
      "distance": 0,
      "is_supermarket": false,
      "is_motorway": false,
      "unleaded": 137.9,
      "diesel": 152.9,
      "updated": "2026-03-13T00:00:00+00:00",
      "cached": true
    },
    {
      "name": "FERDI'S LOCAL",
      "brand": "FERDI'S LOCAL",
      "address": "FERDI'S LOCAL, 43-44, SALOP ROAD, OVERTON, WREXHAM, LL13 0EH, WREXHAM, LL13 0EH",
      "postcode": "",
      "lat": 0.0,
      "lng": 0.0,
      "distance": 0,
      "is_supermarket": false,
      "is_motorway": false,
      "unleaded": 137.9,
      "diesel": 146.9,
      "updated": "2026-03-13T00:00:00+00:00",
      "cached": true
    },
    {
      "name": "ASDA RHYL SUPERSTORE",
      "brand": "ASDA",
      "address": "ST ASAPH AVENUE NORTH, KINMEL BAY, RHYL, LL18 5EQ",
      "postcode": "",
      "lat": 0.0,
      "lng": 0.0,
      "distance": 0,
      "is_supermarket": false,
      "is_motorway": false,
      "unleaded": 138.9,
      "diesel": 150.9,
      "updated": "2026-03-13T00:00:00+00:00",
      "cached": true
    },
    {
      "name": "SAINSBURYS RHYL",
      "brand": "SAINSBURY'S",
      "address": "RHYL ROAD, RHUDDLAN, RHYL, LL18 2TP",
      "postcode": "",
      "lat": 0.0,
      "lng": 0.0,
      "distance": 0,
      "is_supermarket": false,
      "is_motorway": false,
      "unleaded": 138.9,
      "diesel": 152.9,
      "updated": "2026-03-13T00:00:00+00:00",
      "cached": true
    },
    {
      "name": "CASTLE VIEW",
      "brand": "TEXACO",
      "address": "RHYL ROAD, DENBIGH, LL16 5SU",
      "postcode": "",
      "lat": 0.0,
      "lng": 0.0,
      "distance": 0,
      "is_supermarket": false,
      "is_motorway": false,
      "unleaded": 139.9,
      "diesel": 159.9,
      "updated": "2026-03-13T00:00:00+00:00",
      "cached": true
    },
    {
      "name": "RUTHIN",
      "brand": "TEXACO",
      "address": "",
      "postcode": "",
      "lat": 0.0,
      "lng": 0.0,
      "distance": 0,
      "is_supermarket": false,
      "is_motorway": false,
      "unleaded": 139.9,
      "diesel": 164.9,
      "updated": "2026-03-13T00:00:00+00:00",
      "cached": true
    },
    {
      "name": "STANS OF LLANGOLLEN",
      "brand": "TEXACO",
      "address": "STANS OF LLANGOLLEN, BERWYN STREET, LLANGOLLEN, LL20 8NF, LLANGOLLEN, LL20 8NF",
      "postcode": "",
      "lat": 0.0,
      "lng": 0.0,
      "distance": 0,
      "is_supermarket": false,
      "is_motorway": false,
      "unleaded": 141.9,
      "diesel": 154.9,
      "updated": "2026-03-13T00:00:00+00:00",
      "cached": true
    },
    {
      "name": "Ruabon Park Service Station",
      "brand": "RUABON PARK SERVICE STATION",
      "address": "RUABON PARK SERVICE STATION, JAMES PARK WAY, RUABON, WREXHAM, LL14 6EQ, WREXHAM, LL14 6EQ",
      "postcode": "",
      "lat": 0.0,
      "lng": 0.0,
      "distance": 0,
      "is_supermarket": false,
      "is_motorway": false,
      "unleaded": 141.9,
      "diesel": 155.9,
      "updated": "2026-03-13T00:00:00+00:00",
      "cached": true
    },
    {
      "name": "Greenacre Garage",
      "brand": "GREENACRE GARAGE",
      "address": "GREENACRE GARAGE, CHURCH STREET, TARVIN, CHESTER, CH3 8NA, CHESTER, CH3 8NA",
      "postcode": "",
      "lat": 0.0,
      "lng": 0.0,
      "distance": 0,
      "is_supermarket": false,
      "is_motorway": false,
      "unleaded": 144.9,
      "diesel": 160.9,
      "updated": "2026-03-13T00:00:00+00:00",
      "cached": true
    },
    {
      "name": "Dyffryn Service Station",
      "brand": "Esso",
      "address": "",
      "postcode": "",
      "lat": 0.0,
      "lng": 0.0,
      "distance": 0,
      "is_supermarket": false,
      "is_motorway": false,
      "unleaded": 156.9,
      "diesel": 159.9,
      "updated": "2026-03-13T00:00:00+00:00",
      "cached": true
    },
    {
      "name": "ASDA RHUDDLAN EXPRESS PETROL",
      "brand": "TEXACO",
      "address": "RHYL ROAD, RHUDDLAN, LL18 2TS",
      "postcode": "",
      "lat": 0.0,
      "lng": 0.0,
      "distance": 0,
      "is_supermarket": false,
      "is_motorway": false,
      "unleaded": 145.9,
      "diesel": 161.9,
      "updated": "2026-03-13T00:00:00+00:00",
      "cached": true
    },
    {
      "name": "ASDA VALE EXPRESS PETROL",
      "brand": "ESSO",
      "address": "193 VALE ROAD, CONWY, LL18 2PH",
      "postcode": "",
      "lat": 0.0,
      "lng": 0.0,
      "distance": 0,
      "is_supermarket": false,
      "is_motorway": false,
      "unleaded": 142.9,
      "diesel": 159.9,
      "updated": "2026-03-13T00:00:00+00:00",
      "cached": true
    },
    {
      "name": "ASDA RHOSTYLLEN EXPRESS PETROL",
      "brand": "ESSO",
      "address": "WREXHAM ROAD, WREXHAM, LL14 4EJ",
      "postcode": "",
      "lat": 0.0,
      "lng": 0.0,
      "distance": 0,
      "is_supermarket": false,
      "is_motorway": false,
      "unleaded": 144.9,
      "diesel": 159.9,
      "updated": "2026-03-13T00:00:00+00:00",
      "cached": true
    },
    {
      "name": "ASDA KINMEL PARK WEST EXPRESS PETROL",
      "brand": "ESSO",
      "address": "A55 WESTBOUND, BODELWYDDAN, LL18 5XW",
      "postcode": "",
      "lat": 0.0,
      "lng": 0.0,
      "distance": 0,
      "is_supermarket": false,
      "is_motorway": false,
      "unleaded": 151.9,
      "diesel": 166.9,
      "updated": "2026-03-13T00:00:00+00:00",
      "cached": true
    },
    {
      "name": "ASDA KINMEL PARK EAST EXPRESS PETROL",
      "brand": "ESSO",
      "address": "55 EXPRESSWAY, BODELWYDDAN, LL18 5XE",
      "postcode": "",
      "lat": 0.0,
      "lng": 0.0,
      "distance": 0,
      "is_supermarket": false,
      "is_motorway": false,
      "unleaded": 151.9,
      "diesel": 166.9,
      "updated": "2026-03-13T00:00:00+00:00",
      "cached": true
    },
    {
      "name": "ASDA WREXHAM SUPERSTORE",
      "brand": "ASDA",
      "address": "HOLT ROAD, WREXHAM, LL13 8HL",
      "postcode": "",
      "lat": 0.0,
      "lng": 0.0,
      "distance": 0,
      "is_supermarket": false,
      "is_motorway": false,
      "unleaded": 135.7,
      "diesel": 155.7,
      "updated": "2026-03-13T00:00:00+00:00",
      "cached": true
    },
    {
      "name": "JACOBS WELL SERVICE STATION",
      "brand": "JET",
      "address": "",
      "postcode": "",
      "lat": 0.0,
      "lng": 0.0,
      "distance": 0,
      "is_supermarket": false,
      "is_motorway": false,
      "unleaded": 139.9,
      "diesel": 159.9,
      "updated": "2026-03-13T00:00:00+00:00",
      "cached": true
    },
    {
      "name": "INCH FILLING STATION",
      "brand": "ESSO",
      "address": "",
      "postcode": "",
      "lat": 0.0,
      "lng": 0.0,
      "distance": 0,
      "is_supermarket": false,
      "is_motorway": false,
      "unleaded": 142.9,
      "diesel": 162.9,
      "updated": "2026-03-13T00:00:00+00:00",
      "cached": true
    },
    {
      "name": "FOUR ACES FILLING STATION",
      "brand": "JET",
      "address": "",
      "postcode": "",
      "lat": 0.0,
      "lng": 0.0,
      "distance": 0,
      "is_supermarket": false,
      "is_motorway": false,
      "unleaded": 139.9,
      "diesel": 159.9,
      "updated": "2026-03-13T00:00:00+00:00",
      "cached": true
    },
    {
      "name": "HELMINGTON ROW FILLING STATION",
      "brand": "ESSO",
      "address": "",
      "postcode": "",
      "lat": 0.0,
      "lng": 0.0,
      "distance": 0,
      "is_supermarket": false,
      "is_motorway": false,
      "unleaded": 137.9,
      "diesel": 157.9,
      "updated": "2026-03-13T00:00:00+00:00",
      "cached": true
    },
    {
      "name": "IVANHOE SERVICE STATION",
      "brand": "BP",
      "address": "",
      "postcode": "",
      "lat": 0.0,
      "lng": 0.0,
      "distance": 0,
      "is_supermarket": false,
      "is_motorway": false,
      "unleaded": 142.9,
      "diesel": 163.9,
      "updated": "2026-03-13T00:00:00+00:00",
      "cached": true
    }
  ]
}