{
  "nationalAvg": {
    "unleaded": 137.6,
    "diesel": 152.0
  },
  "lastUpdated": "2026-03-08T19:00:11.714320+00:00",
  "stationCount": 74,
  "stations": [
    {
      "name": "SMITHY VIEW SERVICE STATION ACTON",
      "brand": "SMITHY VIEW SERVICE STATION ACTON",
      "address": "SMITHY VIEW SERVICE STATION, CHESTER ROAD, WRECSAM, LL12 8DY, WRECSAM, LL12 8DY",
      "lat": 53.0687749,
      "lng": -2.9908063,
      "distance": 9.8,
      "is_supermarket": false,
      "is_motorway": false,
      "unleaded": 125.9,
      "diesel": 134.9,
      "updated": "2026-02-21T10:07:39.893Z",
      "id": 55
    },
    {
      "name": "COSTCO WHOLESALE CHESTER",
      "brand": "COSTCO WHOLESALE",
      "address": "DUNKIRK TRADING ESTATE, CHESTER GATES, CHESTER, CHESTER, CH1 6LT",
      "lat": 53.24496,
      "lng": -2.93034,
      "distance": 4.9,
      "is_supermarket": false,
      "is_motorway": false,
      "unleaded": 127.9,
      "diesel": 139.9,
      "updated": "2026-03-07T19:08:19.485Z",
      "id": 36
    },
    {
      "name": "Barnhills of Broxton",
      "brand": "GULF",
      "address": "BROXTON GARAGE, WHITCHURCH ROAD, BROXTON, CHESTER, CH3 9JR, CHESTER, CH3 9JR",
      "lat": 53.084759,
      "lng": -2.7783339,
      "distance": 13.6,
      "is_supermarket": true,
      "is_motorway": false,
      "unleaded": 130.9,
      "diesel": 138.9,
      "updated": "2026-01-16T10:29:42.000Z",
      "id": 41
    },
    {
      "name": "Esso - Saltney Service Station",
      "brand": "SALTNEY SERVICE STATION",
      "address": "High Street, Saltney, CH4 8SJ",
      "lat": 53.178903,
      "lng": -2.922518,
      "distance": 5.0,
      "is_supermarket": false,
      "is_motorway": false,
      "unleaded": 130.9,
      "diesel": 142.9,
      "updated": "2026-03-02T12:40:56.881Z",
      "id": 49
    },
    {
      "name": "MFG MORRISONS SALTNEY",
      "brand": "MORRISONS",
      "address": "HIGH STREET, SALTNEY, CH4 8RU",
      "lat": 53.178287,
      "lng": -2.935342,
      "distance": 4.6,
      "is_supermarket": false,
      "is_motorway": false,
      "unleaded": 131.9,
      "diesel": 143.9,
      "updated": "2026-03-08T17:10:43.376Z",
      "id": 20
    },
    {
      "name": "Gordale Service Station",
      "brand": "GORDALE SERVICE STATION",
      "address": "GORDALE SERVICE STATION, CHESTER HIGH ROAD, BURTON, NESTON, CH64 8TF, NESTON, CH64 8TF",
      "lat": 53.2741984,
      "lng": -3.0014083,
      "distance": 4.7,
      "is_supermarket": false,
      "is_motorway": false,
      "unleaded": 132.9,
      "diesel": 145.9,
      "updated": "2026-03-03T09:25:21.780Z",
      "id": 37
    },
    {
      "name": "RONTEC BEBINGTON",
      "brand": "BP",
      "address": "BROMBOROUGH ROAD, BEBINGTON, CH63 7RD",
      "lat": 53.34781,
      "lng": -2.99834,
      "distance": 9.7,
      "is_supermarket": false,
      "is_motorway": false,
      "unleaded": 132.9,
      "diesel": 147.9,
      "updated": "2026-03-06T12:15:43.987Z",
      "id": 39
    },
    {
      "name": "MFG BEECHLEY",
      "brand": "TEXACO",
      "address": "KINGSMILL ROAD, HIGHTOWN, LL13 8NH",
      "lat": 53.0409,
      "lng": -2.98956,
      "distance": 11.7,
      "is_supermarket": false,
      "is_motorway": false,
      "unleaded": 132.9,
      "diesel": 141.9,
      "updated": "2026-02-25T09:43:41.585Z",
      "id": 50
    },
    {
      "name": "Esso - Queensferry Service Station",
      "brand": "QUEENSFERRY SERVICE STATION",
      "address": "QUEENSFERRY SERVICE STATION, 108, CHESTER ROAD EAST, SHOTTON, DEESIDE, CH5 1QD, DEESIDE, CH5 1QD",
      "lat": 53.2088991,
      "lng": -3.0326318,
      "distance": 0.0,
      "is_supermarket": false,
      "is_motorway": false,
      "unleaded": 132.9,
      "diesel": 144.9,
      "updated": "2026-03-07T10:51:09.622Z",
      "id": 51
    },
    {
      "name": "BROUGHTON CHESTER EXTRA - PETROL FILLING STATION",
      "brand": "TESCO",
      "address": "1 BROUGHTON SHOPPING PARK, CHESTER ROAD, CHESTER, CH4 0DP",
      "lat": 53.16935,
      "lng": -2.9739,
      "distance": 3.7,
      "is_supermarket": false,
      "is_motorway": false,
      "unleaded": 132.9,
      "diesel": 146.9,
      "updated": "2026-03-07T13:59:51.603Z",
      "id": 59
    },
    {
      "name": "MFG MORRISONS WEST KIRBY",
      "brand": "MORRISONS",
      "address": "ORRYSDALE ROAD, WEST KIRBY, CH48 4HX",
      "lat": 53.374111,
      "lng": -3.181775,
      "distance": 13.0,
      "is_supermarket": false,
      "is_motorway": false,
      "unleaded": 133.9,
      "diesel": 143.9,
      "updated": "2026-03-08T16:55:45.008Z",
      "id": 2
    },
    {
      "name": "MFG MORRISONS WREXHAM",
      "brand": "MORRISONS",
      "address": "RUTHIN ROAD/CENTENARY ROAD, WREXHAM, LL13 7TU",
      "lat": 53.043351,
      "lng": -3.004505,
      "distance": 11.5,
      "is_supermarket": false,
      "is_motorway": false,
      "unleaded": 133.9,
      "diesel": 143.9,
      "updated": "2026-03-08T17:06:18.311Z",
      "id": 8
    },
    {
      "name": "MFG BEBINGTON",
      "brand": "TEXACO",
      "address": "26 OLD CHESTER ROAD, BEBINGTON, CH63 7LQ",
      "lat": 53.359963,
      "lng": -3.006007,
      "distance": 10.5,
      "is_supermarket": false,
      "is_motorway": false,
      "unleaded": 133.9,
      "diesel": 145.9,
      "updated": "2026-03-08T17:12:38.055Z",
      "id": 12
    },
    {
      "name": "MFG MORRISONS CHESTER LIVERPOOL ROAD",
      "brand": "MORRISONS",
      "address": "LIVERPOOL ROAD, CHESTER, CH2 1AU",
      "lat": 53.209038,
      "lng": -2.894566,
      "distance": 5.7,
      "is_supermarket": false,
      "is_motorway": false,
      "unleaded": 133.9,
      "diesel": 145.9,
      "updated": "2026-03-08T15:56:18.106Z",
      "id": 14
    },
    {
      "name": "SAINSBURYS KINGS ROAD BEBINGTON",
      "brand": "SAINSBURY'S",
      "address": "152 KINGS ROAD, BIRKENHEAD, LIVERPOOL, CH63 8PZ",
      "lat": 53.35656,
      "lng": -3.02542,
      "distance": 10.2,
      "is_supermarket": false,
      "is_motorway": false,
      "unleaded": 133.9,
      "diesel": 145.9,
      "updated": "2026-03-07T23:00:08.545Z",
      "id": 63
    },
    {
      "name": "MFG MORRISONS ELLESMERE PORT",
      "brand": "MORRISONS",
      "address": "CHESTER ROAD, WHITBY, CH65 6RU",
      "lat": 53.273606,
      "lng": -2.910218,
      "distance": 6.8,
      "is_supermarket": false,
      "is_motorway": false,
      "unleaded": 133.9,
      "diesel": 145.9,
      "updated": "2026-03-08T16:55:44.227Z",
      "id": 66
    },
    {
      "name": "SAINSBURYS PENSBY ROAD THINGWALL",
      "brand": "SAINSBURY'S",
      "address": "PENSBY ROAD, WIRRAL, CH61 7UB",
      "lat": 53.35295,
      "lng": -3.09298,
      "distance": 10.3,
      "is_supermarket": false,
      "is_motorway": false,
      "unleaded": 134.9,
      "diesel": 144.9,
      "updated": "2026-03-07T22:58:15.412Z",
      "id": 1
    },
    {
      "name": "SAINSBURYS CHESTER",
      "brand": "SAINSBURY'S",
      "address": "CALDY VALLEY ROAD, GREAT BOUGHTON, CHESTER, CH3 5QJ",
      "lat": 53.18467,
      "lng": -2.85543,
      "distance": 7.5,
      "is_supermarket": false,
      "is_motorway": false,
      "unleaded": 134.9,
      "diesel": 147.9,
      "updated": "2026-03-07T22:24:31.255Z",
      "id": 10
    },
    {
      "name": "SAINSBURYS ELLESMERE PORT",
      "brand": "SAINSBURY'S",
      "address": "KINSEY ROAD, ELLESMERE PORT, CH65 9HN",
      "lat": 53.26233,
      "lng": -2.88042,
      "distance": 7.3,
      "is_supermarket": false,
      "is_motorway": false,
      "unleaded": 134.9,
      "diesel": 147.9,
      "updated": "2026-03-07T21:45:59.594Z",
      "id": 16
    },
    {
      "name": "WREXHAM EXTRA - PETROL FILLING STATION",
      "brand": "TESCO",
      "address": "CRESCENT ROAD, WREXHAM, LL13 8HF",
      "lat": 53.04619,
      "lng": -2.98742,
      "distance": 11.4,
      "is_supermarket": false,
      "is_motorway": false,
      "unleaded": 134.9,
      "diesel": 145.9,
      "updated": "2026-03-07T14:41:13.502Z",
      "id": 70
    },
    {
      "name": "Plas Acton Fuel Station",
      "brand": "GULF",
      "address": "PLAS ACTON SERVICE STATION, PLAS ACTON GARAGE, 282, CHESTER ROAD, WRECSAM, LL12 8DU, WRECSAM, LL12 8DU",
      "lat": 53.0701313,
      "lng": -2.9897412,
      "distance": 9.8,
      "is_supermarket": false,
      "is_motorway": false,
      "unleaded": 135.9,
      "diesel": 145.9,
      "updated": "2026-03-05T12:58:20.434Z",
      "id": 26
    },
    {
      "name": "RONTEC HOYLAKE",
      "brand": "ESSO",
      "address": "HOYLAKE, HOYLAKE, CH47 0LA",
      "lat": 53.39785,
      "lng": -3.16973,
      "distance": 14.2,
      "is_supermarket": false,
      "is_motorway": false,
      "unleaded": 135.9,
      "diesel": 152.9,
      "updated": "2026-03-06T12:51:09.868Z",
      "id": 34
    },
    {
      "name": "BIRKENHEAD BIDSTON MOSS EXTRA - PETROL FILLING STATION",
      "brand": "TESCO",
      "address": "BIDSTON LINK ROAD, BIRKENHEAD, CH43 7AA",
      "lat": 53.40799,
      "lng": -3.07026,
      "distance": 13.8,
      "is_supermarket": false,
      "is_motorway": false,
      "unleaded": 135.9,
      "diesel": 145.9,
      "updated": "2026-03-07T14:25:54.908Z",
      "id": 43
    },
    {
      "name": "SAINSBURYS BIRKENHEAD",
      "brand": "SAINSBURY'S",
      "address": "342A WOODCHURCH ROAD, BIRKENHEAD, CH42 8PQ",
      "lat": 53.37472,
      "lng": -3.04765,
      "distance": 11.5,
      "is_supermarket": false,
      "is_motorway": false,
      "unleaded": 135.9,
      "diesel": 145.9,
      "updated": "2026-03-07T21:44:47.803Z",
      "id": 62
    },
    {
      "name": "SAINSBURYS UPTON",
      "brand": "SAINSBURY'S",
      "address": "UPTON BY PASS, WIRRAL, CH49 6QG",
      "lat": 53.37986,
      "lng": -3.09998,
      "distance": 12.1,
      "is_supermarket": false,
      "is_motorway": false,
      "unleaded": 136.9,
      "diesel": 146.9,
      "updated": "2026-03-07T21:55:03.871Z",
      "id": 22
    },
    {
      "name": "SPITAL SF CONNECT",
      "brand": "BP",
      "address": "BRIMSTAGE ROAD, WIRRAL, CH63 3EL",
      "lat": 53.34132,
      "lng": -3.00749,
      "distance": 9.2,
      "is_supermarket": false,
      "is_motorway": false,
      "unleaded": 136.9,
      "diesel": 148.9,
      "updated": "2026-03-08T15:07:36.083Z",
      "id": 38
    },
    {
      "name": "HILLCREST MOTOR CO LTD",
      "brand": "GULF",
      "address": "Hillcres Motor Co Ltd, HOLYWELL, CH8 7SJ",
      "lat": 53.26136,
      "lng": -3.20879,
      "distance": 8.1,
      "is_supermarket": true,
      "is_motorway": false,
      "unleaded": 136.9,
      "diesel": 146.9,
      "updated": "2026-03-04T14:46:36.681Z",
      "id": 42
    },
    {
      "name": "MFG MORRISONS RHYL",
      "brand": "MORRISONS",
      "address": "MARSH ROAD, RHYL, LL18 2DF",
      "lat": 53.317314,
      "lng": -3.489098,
      "distance": 20.3,
      "is_supermarket": false,
      "is_motorway": false,
      "unleaded": 136.9,
      "diesel": 149.9,
      "updated": "2026-03-08T15:57:16.130Z",
      "id": 45
    },
    {
      "name": "MFG WALLASEY VILLAGE",
      "brand": "BP",
      "address": "15-35 LEASOWE ROAD, WALLASEY VILLAGE, CH44 2BY",
      "lat": 53.422893,
      "lng": -3.065875,
      "distance": 14.8,
      "is_supermarket": false,
      "is_motorway": false,
      "unleaded": 136.9,
      "diesel": 159.9,
      "updated": "2026-03-08T17:05:30.016Z",
      "id": 52
    },
    {
      "name": "BP HARVEST ENERGY HOYLAKE",
      "brand": "BP HARVEST ENERGY",
      "address": "HOYLAKE ROAD, WIRRAL, CH46 5NA",
      "lat": 53.3961782,
      "lng": -3.1318942,
      "distance": 13.6,
      "is_supermarket": false,
      "is_motorway": false,
      "unleaded": 136.9,
      "diesel": 151.9,
      "updated": "2026-03-07T11:29:41.534Z",
      "id": 61
    },
    {
      "name": "SAINSBURYS WREXHAM",
      "brand": "SAINSBURY'S",
      "address": "RETAIL PARK, PLAS COCH ROAD, WREXHAM, LL11 2BA",
      "lat": 53.05571,
      "lng": -3.00904,
      "distance": 10.6,
      "is_supermarket": false,
      "is_motorway": false,
      "unleaded": 136.9,
      "diesel": 146.9,
      "updated": "2026-03-07T22:04:33.763Z",
      "id": 72
    },
    {
      "name": "MFG MORRISONS DENBIGH",
      "brand": "MORRISONS",
      "address": "SMITHFIELD ROAD, DENBIGH, LL16 3LW",
      "lat": 53.18224,
      "lng": -3.423087,
      "distance": 16.3,
      "is_supermarket": false,
      "is_motorway": false,
      "unleaded": 137.9,
      "diesel": 149.9,
      "updated": "2026-03-08T17:00:42.219Z",
      "id": 5
    },
    {
      "name": "BP HARVEST ENERGY OVERPOOL",
      "brand": "BP HARVEST ENERGY",
      "address": "OVERPOOL ROAD, ELLESMERE PORT, CH66 2JF",
      "lat": 53.2714848,
      "lng": -2.9206747,
      "distance": 6.3,
      "is_supermarket": false,
      "is_motorway": false,
      "unleaded": 137.9,
      "diesel": 159.9,
      "updated": "2026-03-07T11:31:17.297Z",
      "id": 7
    },
    {
      "name": "MFG STRAWBERRY",
      "brand": "BP",
      "address": "WHITBY ROUNDABOUT, ELLESMERE PORT, CH66 2PY",
      "lat": 53.256833,
      "lng": -2.909397,
      "distance": 6.1,
      "is_supermarket": false,
      "is_motorway": false,
      "unleaded": 137.9,
      "diesel": 159.9,
      "updated": "2026-03-08T17:03:37.234Z",
      "id": 24
    },
    {
      "name": "RONTEC RUABON",
      "brand": "ESSO",
      "address": "RUABON BY PASS, WREXHAM, LL14 6YY",
      "lat": 52.99368,
      "lng": -3.03119,
      "distance": 14.9,
      "is_supermarket": false,
      "is_motorway": false,
      "unleaded": 137.9,
      "diesel": 152.9,
      "updated": "2026-03-06T12:28:40.274Z",
      "id": 30
    },
    {
      "name": "RONTEC WREXHAM",
      "brand": "BP",
      "address": "WREXHAM ROAD, JOHNSTOWN, WREXHAM, LL14 1PA",
      "lat": 53.01205,
      "lng": -3.04318,
      "distance": 13.6,
      "is_supermarket": false,
      "is_motorway": false,
      "unleaded": 137.9,
      "diesel": 152.9,
      "updated": "2026-03-06T12:44:45.993Z",
      "id": 31
    },
    {
      "name": "FERDI'S LOCAL",
      "brand": "FERDI'S LOCAL",
      "address": "FERDI'S LOCAL, 43-44, SALOP ROAD, OVERTON, WREXHAM, LL13 0EH, WREXHAM, LL13 0EH",
      "lat": 52.968534,
      "lng": -2.9339477,
      "distance": 17.1,
      "is_supermarket": true,
      "is_motorway": false,
      "unleaded": 137.9,
      "diesel": 146.9,
      "updated": "2026-03-04T11:52:53.469Z",
      "id": 32
    },
    {
      "name": "SHELL LITTLE WAITROSE HINDERTON",
      "brand": "SHELL",
      "address": "CHESTER HIGH ROAD, NESTON, CH64 7TA",
      "lat": 53.294253,
      "lng": -3.042575,
      "distance": 5.9,
      "is_supermarket": false,
      "is_motorway": false,
      "unleaded": 137.9,
      "diesel": 152.9,
      "updated": "2026-03-06T16:05:12.974Z",
      "id": 46
    },
    {
      "name": "Rhydymwyn Service Station",
      "brand": "RHYDYMWYN SERVICE STATION",
      "address": "A A S RHYDYMWYN LTD, RHYDYMWYN SERVICE STATION, DENBIGH ROAD, RHYDYMWYN, MOLD, CH7 5HE, MOLD, CH7 5HE",
      "lat": 53.1928694,
      "lng": -3.1889389,
      "distance": 6.5,
      "is_supermarket": false,
      "is_motorway": false,
      "unleaded": 137.9,
      "diesel": 147.8,
      "updated": "2026-03-06T09:34:07.713Z",
      "id": 60
    },
    {
      "name": "SHELL WIRRAL WAY",
      "brand": "SHELL",
      "address": "413 BOROUGH ROAD, BIRKENHEAD, CH42 0HA",
      "lat": 53.384042,
      "lng": -3.032912,
      "distance": 12.1,
      "is_supermarket": false,
      "is_motorway": false,
      "unleaded": 137.9,
      "diesel": 151.9,
      "updated": "2026-03-08T12:04:03.483Z",
      "id": 67
    },
    {
      "name": "MFG GREASBY",
      "brand": "ESSO",
      "address": "GREASBY ROAD, GREASBY  WIRRAL, CH49 2PF",
      "lat": 53.379848,
      "lng": -3.116135,
      "distance": 12.3,
      "is_supermarket": false,
      "is_motorway": false,
      "unleaded": 138.9,
      "diesel": 147.9,
      "updated": "2026-03-08T18:01:15.159Z",
      "id": 9
    },
    {
      "name": "MFG ROWTON",
      "brand": "ESSO",
      "address": "WHITCHURCH ROAD, ROWTON, CH3 6AF",
      "lat": 53.176188,
      "lng": -2.825907,
      "distance": 8.9,
      "is_supermarket": false,
      "is_motorway": false,
      "unleaded": 138.9,
      "diesel": 151.9,
      "updated": "2026-03-08T17:54:28.124Z",
      "id": 15
    },
    {
      "name": "SHELL CARLETT",
      "brand": "SHELL",
      "address": "1201 NEW CHESTER ROAD, WIRRAL, CH62 0BZ",
      "lat": 53.314799,
      "lng": -2.963826,
      "distance": 7.9,
      "is_supermarket": false,
      "is_motorway": false,
      "unleaded": 138.9,
      "diesel": 162.9,
      "updated": "2026-03-08T12:03:02.674Z",
      "id": 18
    },
    {
      "name": "PRESTATYN SUPERSTORE - PETROL FILLING STATION",
      "brand": "TESCO",
      "address": "TESCO STORES, PRESTATYN SHOPPING PARK, PRESTATYN, LL19 9BJ",
      "lat": 53.3366,
      "lng": -3.40236,
      "distance": 17.6,
      "is_supermarket": false,
      "is_motorway": false,
      "unleaded": 138.9,
      "diesel": 151.9,
      "updated": "2026-03-07T14:59:51.540Z",
      "id": 21
    },
    {
      "name": "BP HARVEST ENERGY LAIRD STREET",
      "brand": "BP HARVEST ENERGY",
      "address": "LAIRD STREET, BIRKENHEAD, CH41 7AJ",
      "lat": 53.4007873,
      "lng": -3.0556847,
      "distance": 13.3,
      "is_supermarket": false,
      "is_motorway": false,
      "unleaded": 138.9,
      "diesel": 152.9,
      "updated": "2026-03-07T11:28:24.986Z",
      "id": 25
    },
    {
      "name": "ASDA RHYL SUPERSTORE",
      "brand": "ASDA",
      "address": "ST ASAPH AVENUE NORTH, KINMEL BAY, RHYL, LL18 5EQ",
      "lat": 53.31088,
      "lng": -3.5214,
      "distance": 21.4,
      "is_supermarket": false,
      "is_motorway": false,
      "unleaded": 138.9,
      "diesel": 150.9,
      "updated": "2026-03-08T15:30:59.878Z",
      "id": 27
    },
    {
      "name": "SAINSBURYS RHYL",
      "brand": "SAINSBURY'S",
      "address": "RHYL ROAD, RHUDDLAN, RHYL, LL18 2TP",
      "lat": 53.30371,
      "lng": -3.46769,
      "distance": 19.1,
      "is_supermarket": false,
      "is_motorway": false,
      "unleaded": 138.9,
      "diesel": 152.9,
      "updated": "2026-03-07T22:01:17.523Z",
      "id": 53
    },
    {
      "name": "SHELL MERSEY VIEW",
      "brand": "SHELL",
      "address": "STATION ROAD, ELLESMERE PORT, CH65 4AX",
      "lat": 53.284662,
      "lng": -2.89441,
      "distance": 7.8,
      "is_supermarket": false,
      "is_motorway": false,
      "unleaded": 138.9,
      "diesel": 154.9,
      "updated": "2026-03-06T16:05:15.787Z",
      "id": 69
    },
    {
      "name": "H W Oultram & Co",
      "brand": "OIL 4 WALES",
      "address": "H W OULTRAM & CO, NEWBRIDGE FARM & FILLING STATION, HOLYWELL ROAD, EWLOE, DEESIDE, CH5 3BS, DEESIDE, CH5 3BS",
      "lat": 53.1959232,
      "lng": -3.0636485,
      "distance": 1.6,
      "is_supermarket": false,
      "is_motorway": false,
      "unleaded": 139.9,
      "diesel": 149.9,
      "updated": "2026-03-07T12:08:00.087Z",
      "id": 3
    },
    {
      "name": "SHELL CO-OP WREXHAM",
      "brand": "SHELL",
      "address": "MOLD ROAD, WREXHAM, LL11 2AF",
      "lat": 53.051908,
      "lng": -3.006356,
      "distance": 10.9,
      "is_supermarket": false,
      "is_motorway": false,
      "unleaded": 139.9,
      "diesel": 149.9,
      "updated": "2026-03-06T12:35:02.820Z",
      "id": 4
    },
    {
      "name": "CASTLE VIEW",
      "brand": "TEXACO",
      "address": "RHYL ROAD, DENBIGH, LL16 5SU",
      "lat": 53.1912,
      "lng": -3.40882,
      "distance": 15.6,
      "is_supermarket": false,
      "is_motorway": false,
      "unleaded": 139.9,
      "diesel": 159.9,
      "updated": "2026-03-07T10:26:12.355Z",
      "id": 11
    },
    {
      "name": "BR Gwersyllt",
      "brand": "SPAR",
      "address": "PARKWALL SERVICE STATION, MOLD ROAD, GWERSYLLT, WREXHAM, LL11 4AH, WREXHAM, LL11 4AH",
      "lat": 53.0792616,
      "lng": -3.021987,
      "distance": 9.0,
      "is_supermarket": false,
      "is_motorway": false,
      "unleaded": 139.9,
      "diesel": 149.9,
      "updated": "2026-03-06T14:31:14.853Z",
      "id": 17
    },
    {
      "name": "MFG LISCARD",
      "brand": "SHELL",
      "address": "LLOYDS CORNER / LISCARD ROAD, WALLASEY, CH44 9AD",
      "lat": 53.414368,
      "lng": -3.02869,
      "distance": 14.2,
      "is_supermarket": false,
      "is_motorway": false,
      "unleaded": 139.9,
      "diesel": 159.9,
      "updated": "2026-03-08T17:04:40.164Z",
      "id": 19
    },
    {
      "name": "Dobshill Service Station",
      "brand": "DOBSHILL SERVICE STATION",
      "address": "DOBSHILL SERVICE STATION, CHESTER ROAD, DOBSHILL, DEESIDE, CH5 3LZ, DEESIDE, CH5 3LZ",
      "lat": 53.1636207,
      "lng": -3.039481,
      "distance": 3.1,
      "is_supermarket": false,
      "is_motorway": false,
      "unleaded": 139.9,
      "diesel": 154.9,
      "updated": "2026-03-06T14:05:39.529Z",
      "id": 35
    },
    {
      "name": "Ellesmere Port Service Station",
      "brand": "ELLESMERE PORT SERVICE STATION",
      "address": "ELLESMERE PORT SERVICE STATION, JACKS WOOD AVENUE, ELLESMERE PORT, CH65 3AA, ELLESMERE PORT, CH65 3AA",
      "lat": 53.2898073,
      "lng": -2.9077945,
      "distance": 7.6,
      "is_supermarket": false,
      "is_motorway": false,
      "unleaded": 139.9,
      "diesel": 152.9,
      "updated": "2026-03-06T14:04:35.223Z",
      "id": 40
    },
    {
      "name": "BR Flint",
      "brand": "SPAR",
      "address": "211A, CHESTER ROAD, OAKENHOLT, Y FFLINT, CH6 5DZ, Y FFLINT, CH6 5DZ",
      "lat": 53.2443473,
      "lng": -3.1222575,
      "distance": 4.4,
      "is_supermarket": false,
      "is_motorway": false,
      "unleaded": 139.9,
      "diesel": 152.9,
      "updated": "2026-03-06T14:32:09.790Z",
      "id": 48
    },
    {
      "name": "MFG COLESHILL",
      "brand": "SHELL",
      "address": "HOLYWELL ROAD, FLINT, CH6 5RR",
      "lat": 53.253768,
      "lng": -3.14176,
      "distance": 5.5,
      "is_supermarket": false,
      "is_motorway": false,
      "unleaded": 139.9,
      "diesel": 159.9,
      "updated": "2026-03-08T17:36:18.179Z",
      "id": 54
    },
    {
      "name": "SHELL GAYTON",
      "brand": "SHELL",
      "address": "CHESTER ROAD, WIRRAL, MERSEYSIDE, CH60 3RY",
      "lat": 53.322022,
      "lng": -3.084409,
      "distance": 8.1,
      "is_supermarket": false,
      "is_motorway": false,
      "unleaded": 139.9,
      "diesel": 152.9,
      "updated": "2026-03-06T16:05:33.568Z",
      "id": 58
    },
    {
      "name": "SHELL UPTON",
      "brand": "SHELL",
      "address": "ARROWE PARK ROAD, WIRRAL, CH49 0UE",
      "lat": 53.381566,
      "lng": -3.09902,
      "distance": 12.2,
      "is_supermarket": false,
      "is_motorway": false,
      "unleaded": 139.9,
      "diesel": 151.9,
      "updated": "2026-03-08T18:46:02.489Z",
      "id": 64
    },
    {
      "name": "RUTHIN",
      "brand": "TEXACO",
      "address": "PARK ROAD, RUTHIN, LL151NB",
      "lat": 53.1134,
      "lng": -3.31576,
      "distance": 13.4,
      "is_supermarket": false,
      "is_motorway": false,
      "unleaded": 139.9,
      "diesel": 159.9,
      "updated": "2026-03-07T10:26:17.640Z",
      "id": 65
    },
    {
      "name": "ASCONA HOLYWELL SERVICE STATION",
      "brand": "VALERO",
      "address": "HOLWAY ROAD, HOLYWELL, CH8 7LQ",
      "lat": 53.279441,
      "lng": -3.2410974,
      "distance": 9.9,
      "is_supermarket": false,
      "is_motorway": false,
      "unleaded": 140.0,
      "diesel": 150.0,
      "updated": "2026-03-04T12:55:09.332Z",
      "id": 6
    },
    {
      "name": "MOLD SUPERSTORE - PETROL FILLING STATION",
      "brand": "TESCO",
      "address": "PONTERWYL, YR WYDDGRUG, CH7 1UB",
      "lat": 53.16708,
      "lng": -3.13754,
      "distance": 5.2,
      "is_supermarket": false,
      "is_motorway": false,
      "unleaded": 140.9,
      "diesel": 150.9,
      "updated": "2026-03-07T14:40:52.081Z",
      "id": 56
    },
    {
      "name": "SHELL CHESTER",
      "brand": "SHELL",
      "address": "TARVIN ROAD, CHESTER, CH3 5NJ",
      "lat": 53.193526,
      "lng": -2.856604,
      "distance": 7.4,
      "is_supermarket": false,
      "is_motorway": false,
      "unleaded": 141.9,
      "diesel": 155.9,
      "updated": "2026-03-06T16:05:36.043Z",
      "id": 13
    },
    {
      "name": "STANS OF LLANGOLLEN",
      "brand": "TEXACO",
      "address": "STANS OF LLANGOLLEN, BERWYN STREET, LLANGOLLEN, LL20 8NF, LLANGOLLEN, LL20 8NF",
      "lat": 52.9688428,
      "lng": -3.171139,
      "distance": 17.6,
      "is_supermarket": true,
      "is_motorway": false,
      "unleaded": 141.9,
      "diesel": 154.9,
      "updated": "2026-03-07T14:33:10.784Z",
      "id": 28
    },
    {
      "name": "Ruabon Park Service Station",
      "brand": "RUABON PARK SERVICE STATION",
      "address": "RUABON PARK SERVICE STATION, JAMES PARK WAY, RUABON, WREXHAM, LL14 6EQ, WREXHAM, LL14 6EQ",
      "lat": 52.9833637,
      "lng": -3.0453473,
      "distance": 15.6,
      "is_supermarket": false,
      "is_motorway": false,
      "unleaded": 141.9,
      "diesel": 155.9,
      "updated": "2026-02-06T14:15:53.735Z",
      "id": 29
    },
    {
      "name": "SHELL HOOLE ROAD",
      "brand": "SHELL",
      "address": "HOOLE ROAD, CHESTER, CH2 3NH",
      "lat": 53.199234,
      "lng": -2.878935,
      "distance": 6.4,
      "is_supermarket": false,
      "is_motorway": false,
      "unleaded": 141.9,
      "diesel": 154.9,
      "updated": "2026-03-06T16:05:21.545Z",
      "id": 68
    },
    {
      "name": "MFG PRESTATYN",
      "brand": "BP",
      "address": "MARINE ROAD, PRESTATYN, LL19 7HA",
      "lat": 53.3376,
      "lng": -3.40742,
      "distance": 17.8,
      "is_supermarket": false,
      "is_motorway": false,
      "unleaded": 141.9,
      "diesel": 159.9,
      "updated": "2026-03-08T17:14:42.636Z",
      "id": 74
    },
    {
      "name": "SHELL CO-OP MOLD",
      "brand": "SHELL",
      "address": "CHESTER ROAD, MOLD, CH7 6LQ",
      "lat": 53.181156,
      "lng": -3.111588,
      "distance": 3.8,
      "is_supermarket": false,
      "is_motorway": false,
      "unleaded": 143.9,
      "diesel": 158.9,
      "updated": "2026-03-06T16:29:02.607Z",
      "id": 47
    },
    {
      "name": "Greenacre Garage",
      "brand": "GREENACRE GARAGE",
      "address": "GREENACRE GARAGE, CHURCH STREET, TARVIN, CHESTER, CH3 8NA, CHESTER, CH3 8NA",
      "lat": 53.1951588,
      "lng": -2.7628614,
      "distance": 11.2,
      "is_supermarket": true,
      "is_motorway": false,
      "unleaded": 144.9,
      "diesel": 160.9,
      "updated": "2026-03-06T09:43:14.120Z",
      "id": 57
    },
    {
      "name": "SHELL NORTHOP",
      "brand": "SHELL",
      "address": "A55, MOLD, CH7 6HB",
      "lat": 53.192913,
      "lng": -3.081794,
      "distance": 2.3,
      "is_supermarket": false,
      "is_motorway": false,
      "unleaded": 148.9,
      "diesel": 165.9,
      "updated": "2026-03-08T12:04:03.167Z",
      "id": 23
    },
    {
      "name": "BR Buckley",
      "brand": "SPAR",
      "address": "72, MOLD ROAD, BUCKLEY, CH7 2NJ, BUCKLEY, CH7 2NJ",
      "lat": 53.1685643,
      "lng": -3.0885872,
      "distance": 3.6,
      "is_supermarket": false,
      "is_motorway": false,
      "unleaded": 149.9,
      "diesel": null,
      "updated": "2026-03-06T14:34:08.697Z",
      "id": 73
    },
    {
      "name": "Lobitos",
      "brand": "ESSO",
      "address": "LOBITOS LTD, GWESPYR, TREFFYNNON, CH8 9JS, TREFFYNNON, CH8 9JS",
      "lat": 53.342343,
      "lng": -3.3371063,
      "distance": 15.6,
      "is_supermarket": false,
      "is_motorway": false,
      "unleaded": 153.9,
      "diesel": 153.9,
      "updated": "2026-03-06T08:58:50.061Z",
      "id": 71
    },
    {
      "name": "Dyffryn Service Station",
      "brand": "ESSO",
      "address": "DYFFRYN SERVICE STATION, DENBIGH ROAD, RUTHIN, LL15 1PE, RUTHIN, LL15 1PE",
      "lat": 53.1167433,
      "lng": -3.3249443,
      "distance": 13.7,
      "is_supermarket": false,
      "is_motorway": false,
      "unleaded": 156.9,
      "diesel": 148.9,
      "updated": "2026-03-07T07:22:53.876Z",
      "id": 33
    },
    {
      "name": "SHELL HAPSFORD MWSA",
      "brand": "SHELL",
      "address": "JUNCTION 14 M56, HAPSFORD, CH2 4QZ",
      "lat": 53.268277,
      "lng": -2.801322,
      "distance": 10.4,
      "is_supermarket": false,
      "is_motorway": true,
      "unleaded": 158.9,
      "diesel": 174.9,
      "updated": "2026-03-06T17:22:03.222Z",
      "id": 44
    }
  ]
}