{
  "nationalAvg": {
    "unleaded": 141.0,
    "diesel": 160.3
  },
  "lastUpdated": "2026-03-12T16:15:23.552534+00:00",
  "stationCount": 96,
  "stations": [
    {
      "name": "SAINSBURYS PENSBY ROAD THINGWALL",
      "brand": "SAINSBURY'S",
      "address": "",
      "postcode": "CH61 7UB",
      "lat": 53.35295,
      "lng": -3.09298,
      "unleaded": 136.9,
      "diesel": 155.9,
      "updated": "2026-03-11T22:55:23.752Z",
      "cached": false,
      "distance": 10.6
    },
    {
      "name": "MFG MORRISONS WEST KIRBY",
      "brand": "MORRISONS",
      "address": "",
      "postcode": "CH48 4HX",
      "lat": 53.374111,
      "lng": -3.181775,
      "unleaded": 136.9,
      "diesel": 153.9,
      "updated": "2026-03-12T12:58:15.094Z",
      "cached": false,
      "distance": 13.3
    },
    {
      "name": "H W Oultram & Co",
      "brand": "Oil 4 Wales",
      "address": "",
      "postcode": "CH5 3BS",
      "lat": 53.1959232,
      "lng": -3.0636485,
      "unleaded": 139.9,
      "diesel": 158.9,
      "updated": "2026-03-09T16:10:51.177Z",
      "cached": false,
      "distance": 1.7
    },
    {
      "name": "SHELL CO-OP WREXHAM",
      "brand": "SHELL",
      "address": "",
      "postcode": "LL11 2AF",
      "lat": 53.051908,
      "lng": -3.006356,
      "unleaded": 144.9,
      "diesel": 159.9,
      "updated": "2026-03-12T16:04:26.112Z",
      "cached": false,
      "distance": 10.6
    },
    {
      "name": "MFG MORRISONS LIVERPOOL BELLE VALE",
      "brand": "MORRISONS",
      "address": "",
      "postcode": "L25 2RD",
      "lat": 53.388579,
      "lng": -2.857531,
      "unleaded": 135.9,
      "diesel": 155.9,
      "updated": "2026-03-12T15:56:50.637Z",
      "cached": false,
      "distance": 14.5
    },
    {
      "name": "PGG LEVERHULME",
      "brand": "VALERO LEVERHULME",
      "address": "",
      "postcode": "CH62 6AT",
      "lat": 53.32585,
      "lng": -2.97254,
      "unleaded": 143.9,
      "diesel": 173.9,
      "updated": "2026-03-12T13:04:21.892Z",
      "cached": false,
      "distance": 8.6
    },
    {
      "name": "ASCONA HOLYWELL SERVICE STATION",
      "brand": "VALERO",
      "address": "",
      "postcode": "CH8 7LQ",
      "lat": 53.279441,
      "lng": -3.2410974,
      "unleaded": 144.0,
      "diesel": 160.0,
      "updated": "2026-03-12T11:42:33.760Z",
      "cached": false,
      "distance": 10.3
    },
    {
      "name": "BP HARVEST ENERGY GRASSENDALE",
      "brand": "BP HARVEST ENERGY",
      "address": "",
      "postcode": "L19 0NY",
      "lat": 53.3611763,
      "lng": -2.9129944,
      "unleaded": 138.9,
      "diesel": 158.9,
      "updated": "2026-03-11T09:36:50.408Z",
      "cached": false,
      "distance": 11.8
    },
    {
      "name": "BP HARVEST ENERGY OVERPOOL",
      "brand": "BP HARVEST ENERGY",
      "address": "",
      "postcode": "CH66 2JF",
      "lat": 53.2714848,
      "lng": -2.9206747,
      "unleaded": 139.9,
      "diesel": 169.9,
      "updated": "2026-03-10T10:55:49.720Z",
      "cached": false,
      "distance": 6.3
    },
    {
      "name": "MFG GREASBY",
      "brand": "ESSO",
      "address": "",
      "postcode": "CH49 2PF",
      "lat": 53.379848,
      "lng": -3.116135,
      "unleaded": 139.9,
      "diesel": 157.9,
      "updated": "2026-03-12T12:20:44.765Z",
      "cached": false,
      "distance": 12.6
    },
    {
      "name": "SAINSBURYS CHESTER",
      "brand": "SAINSBURY'S",
      "address": "",
      "postcode": "CH3 5QJ",
      "lat": 53.18467,
      "lng": -2.85543,
      "unleaded": 136.9,
      "diesel": 155.9,
      "updated": "2026-03-11T22:26:30.693Z",
      "cached": false,
      "distance": 7.2
    },
    {
      "name": "JACOBS WELL SERVICE STATION",
      "brand": "JET",
      "address": "",
      "postcode": "WF1 3NS",
      "lat": 53.2922431,
      "lng": -2.9523846,
      "unleaded": 139.9,
      "diesel": 159.9,
      "updated": "2026-03-09T11:58:20.700Z",
      "cached": false,
      "distance": 6.8
    },
    {
      "name": "MFG BEBINGTON",
      "brand": "TEXACO",
      "address": "",
      "postcode": "CH63 7LQ",
      "lat": 53.359963,
      "lng": -3.006007,
      "unleaded": 136.9,
      "diesel": 155.9,
      "updated": "2026-03-12T09:16:04.754Z",
      "cached": false,
      "distance": 10.7
    },
    {
      "name": "SHELL CHESTER",
      "brand": "SHELL",
      "address": "",
      "postcode": "CH3 5NJ",
      "lat": 53.193526,
      "lng": -2.856604,
      "unleaded": 146.9,
      "diesel": 164.9,
      "updated": "2026-03-12T12:46:40.719Z",
      "cached": false,
      "distance": 7.1
    },
    {
      "name": "MFG MORRISONS CHESTER LIVERPOOL ROAD",
      "brand": "MORRISONS",
      "address": "",
      "postcode": "CH2 1AU",
      "lat": 53.209038,
      "lng": -2.894566,
      "unleaded": 136.9,
      "diesel": 155.9,
      "updated": "2026-03-12T15:58:02.119Z",
      "cached": false,
      "distance": 5.5
    },
    {
      "name": "MFG ROWTON",
      "brand": "ESSO",
      "address": "",
      "postcode": "CH3 6AF",
      "lat": 53.176188,
      "lng": -2.825907,
      "unleaded": 141.9,
      "diesel": 159.9,
      "updated": "2026-03-12T09:57:32.027Z",
      "cached": false,
      "distance": 8.5
    },
    {
      "name": "SAINSBURYS ELLESMERE PORT",
      "brand": "SAINSBURY'S",
      "address": "",
      "postcode": "CH65 9HN",
      "lat": 53.26233,
      "lng": -2.88042,
      "unleaded": 137.9,
      "diesel": 155.9,
      "updated": "2026-03-11T21:50:27.778Z",
      "cached": false,
      "distance": 7.2
    },
    {
      "name": "BR Gwersyllt",
      "brand": "Spar",
      "address": "",
      "postcode": "LL11 4AH",
      "lat": 53.0792616,
      "lng": -3.021987,
      "unleaded": 141.9,
      "diesel": 155.9,
      "updated": "2026-03-11T11:57:10.016Z",
      "cached": false,
      "distance": 8.7
    },
    {
      "name": "SHELL CARLETT",
      "brand": "SHELL",
      "address": "",
      "postcode": "CH62 0BZ",
      "lat": 53.314799,
      "lng": -2.963826,
      "unleaded": 145.9,
      "diesel": 174.9,
      "updated": "2026-03-12T12:45:25.356Z",
      "cached": false,
      "distance": 8.0
    },
    {
      "name": "INCH FILLING STATION",
      "brand": "ESSO",
      "address": "",
      "postcode": "DG9 8RY",
      "lat": 53.0845618,
      "lng": -2.9738553,
      "unleaded": 142.9,
      "diesel": 162.9,
      "updated": "2026-03-12T11:10:04.372Z",
      "cached": false,
      "distance": 8.6
    },
    {
      "name": "MFG MORRISONS SALTNEY",
      "brand": "MORRISONS",
      "address": "",
      "postcode": "CH4 8RU",
      "lat": 53.178287,
      "lng": -2.935342,
      "unleaded": 135.9,
      "diesel": 155.9,
      "updated": "2026-03-12T13:15:31.422Z",
      "cached": false,
      "distance": 4.2
    },
    {
      "name": "ESSAR GATEACRE SERVICE STATION",
      "brand": "ESSAR",
      "address": "",
      "postcode": "L25 1PG",
      "lat": 53.3921211,
      "lng": -2.8725312,
      "unleaded": 137.9,
      "diesel": 156.9,
      "updated": "2026-03-12T09:17:10.557Z",
      "cached": false,
      "distance": 14.4
    },
    {
      "name": "SAINSBURYS UPTON",
      "brand": "SAINSBURY'S",
      "address": "",
      "postcode": "CH49 6QG",
      "lat": 53.37986,
      "lng": -3.09998,
      "unleaded": 138.9,
      "diesel": 153.9,
      "updated": "2026-03-11T21:52:54.005Z",
      "cached": false,
      "distance": 12.5
    },
    {
      "name": "SHELL NORTHOP",
      "brand": "SHELL",
      "address": "",
      "postcode": "CH7 6HB",
      "lat": 53.192913,
      "lng": -3.081794,
      "unleaded": 151.9,
      "diesel": 174.9,
      "updated": "2026-03-12T12:40:09.200Z",
      "cached": false,
      "distance": 2.4
    },
    {
      "name": "SHELL NORTHOP HALL",
      "brand": "SHELL",
      "address": "",
      "postcode": "CH7 6HF",
      "lat": 53.197289,
      "lng": -3.088915,
      "unleaded": 151.9,
      "diesel": 174.9,
      "updated": "2026-03-12T14:02:30.218Z",
      "cached": false,
      "distance": 2.6
    },
    {
      "name": "MFG STRAWBERRY",
      "brand": "BP",
      "address": "",
      "postcode": "CH66 2PY",
      "lat": 53.256833,
      "lng": -2.909397,
      "unleaded": 139.9,
      "diesel": 165.9,
      "updated": "2026-03-12T13:08:58.795Z",
      "cached": false,
      "distance": 6.0
    },
    {
      "name": "SHELL SMITHDOWN ROAD",
      "brand": "SHELL",
      "address": "",
      "postcode": "L15 5AH",
      "lat": 53.38964,
      "lng": -2.928035,
      "unleaded": 139.9,
      "diesel": 156.9,
      "updated": "2026-03-12T12:35:13.448Z",
      "cached": false,
      "distance": 13.4
    },
    {
      "name": "MFG MORRISONS LIVERPOOL SPEKE",
      "brand": "MORRISONS",
      "address": "",
      "postcode": "L24 2WZ",
      "lat": 53.346109,
      "lng": -2.838505,
      "unleaded": 135.9,
      "diesel": 155.9,
      "updated": "2026-03-12T15:59:38.114Z",
      "cached": false,
      "distance": 12.5
    },
    {
      "name": "Plas Acton Fuel Station",
      "brand": "Gulf",
      "address": "",
      "postcode": "LL12 8DU",
      "lat": 53.0701313,
      "lng": -2.9897412,
      "unleaded": 139.9,
      "diesel": 159.9,
      "updated": "2026-03-09T13:58:25.292Z",
      "cached": false,
      "distance": 9.4
    },
    {
      "name": "ASDA COEDPOETH EXPRESS PETROL",
      "brand": "ASDA EXPRESS",
      "address": "",
      "postcode": "LL11 3UF",
      "lat": 53.0553979,
      "lng": -3.0743781,
      "unleaded": 143.9,
      "diesel": 159.9,
      "updated": "2026-03-11T17:51:05.291Z",
      "cached": false,
      "distance": 10.5
    },
    {
      "name": "ASDA HOLT ROAD EXPRESS PETROL",
      "brand": "ESSO",
      "address": "",
      "postcode": "LL13 9SB",
      "lat": 53.061185,
      "lng": -2.953648,
      "unleaded": null,
      "diesel": null,
      "updated": null,
      "cached": false,
      "distance": 10.4
    },
    {
      "name": "Dyffryn Service Station",
      "brand": "Esso",
      "address": "",
      "postcode": "LL15 1PE",
      "lat": 53.1167433,
      "lng": -3.3249443,
      "unleaded": 156.9,
      "diesel": 159.9,
      "updated": "2026-03-10T07:31:29.762Z",
      "cached": false,
      "distance": 13.8
    },
    {
      "name": "ASDA SINGING KETTLE S/STN EXPRESS PETROL",
      "brand": "BP",
      "address": "",
      "postcode": "CH8 8RD",
      "lat": 53.274981,
      "lng": -3.292738,
      "unleaded": 152.9,
      "diesel": 171.9,
      "updated": "2026-03-11T13:56:46.514Z",
      "cached": false,
      "distance": 12.0
    },
    {
      "name": "ASDA TREFFYNNON EXPRESS PETROL",
      "brand": "ESSO",
      "address": "",
      "postcode": "CH8 7SG",
      "lat": 53.267,
      "lng": -3.216,
      "unleaded": 143.9,
      "diesel": 161.9,
      "updated": "2026-03-11T17:54:58.377Z",
      "cached": false,
      "distance": 8.9
    },
    {
      "name": "RONTEC HOYLAKE",
      "brand": "ESSO",
      "address": "",
      "postcode": "CH47 0LA",
      "lat": 53.39785,
      "lng": -3.16973,
      "unleaded": 141.9,
      "diesel": 159.9,
      "updated": "2026-03-12T12:23:06.900Z",
      "cached": false,
      "distance": 14.6
    },
    {
      "name": "ASDA WYLFA EXPRESS PETROL",
      "brand": "ESSO",
      "address": "",
      "postcode": "CH7 1UE",
      "lat": 53.166963,
      "lng": -3.133838,
      "unleaded": 141.9,
      "diesel": 158.9,
      "updated": "2026-03-12T12:25:11.078Z",
      "cached": false,
      "distance": 5.2
    },
    {
      "name": "EG MOLD PFS",
      "brand": "EG ON THE MOVE",
      "address": "",
      "postcode": "CH7 1LB",
      "lat": 53.170418,
      "lng": -3.138778,
      "unleaded": null,
      "diesel": null,
      "updated": null,
      "cached": false,
      "distance": 5.2
    },
    {
      "name": "EG PONTBLYDDYN PFS",
      "brand": "EG ON THE MOVE",
      "address": "",
      "postcode": "CH7 4HL",
      "lat": 53.137161,
      "lng": -3.083567,
      "unleaded": 141.7,
      "diesel": 161.7,
      "updated": "2026-03-11T16:28:24.724Z",
      "cached": false,
      "distance": 5.2
    },
    {
      "name": "Dobshill Service Station",
      "brand": "Dobshill Service Station",
      "address": "",
      "postcode": "CH5 3LZ",
      "lat": 53.1636207,
      "lng": -3.039481,
      "unleaded": 145.9,
      "diesel": 161.9,
      "updated": "2026-03-11T14:48:42.239Z",
      "cached": false,
      "distance": 2.9
    },
    {
      "name": "ASDA QUEENSFERRY",
      "brand": "ASDA",
      "address": "",
      "postcode": "CH5 1TP",
      "lat": 53.2049518,
      "lng": -3.0265271,
      "unleaded": 137.9,
      "diesel": 157.9,
      "updated": "2026-03-12T16:11:24.113Z",
      "cached": false,
      "distance": 0.0
    },
    {
      "name": "ASDA QUAY EXPRESS PETROL",
      "brand": "ESSO",
      "address": "",
      "postcode": "CH5 4AS",
      "lat": 53.22449,
      "lng": -3.071442,
      "unleaded": 141.9,
      "diesel": 158.9,
      "updated": "2026-03-11T14:14:59.640Z",
      "cached": false,
      "distance": 2.3
    },
    {
      "name": "ASDA DEESIDE EXPRESS PETROL",
      "brand": "BP",
      "address": "",
      "postcode": "CH5 2NS",
      "lat": 53.232092,
      "lng": -3.006867,
      "unleaded": 142.9,
      "diesel": 171.9,
      "updated": "2026-03-11T14:08:19.835Z",
      "cached": false,
      "distance": 2.0
    },
    {
      "name": "ASDA WREXHAM ROAD EXPRESS PETROL",
      "brand": "BP",
      "address": "",
      "postcode": "CH4 9DE",
      "lat": 53.162955,
      "lng": -2.908206,
      "unleaded": 143.9,
      "diesel": 171.9,
      "updated": "2026-03-12T14:13:35.719Z",
      "cached": false,
      "distance": 5.7
    },
    {
      "name": "ASDA PARKGATE EXPRESS PETROL",
      "brand": "ESSO",
      "address": "",
      "postcode": "CH1 4BE",
      "lat": 53.2043,
      "lng": -2.9023,
      "unleaded": 141.9,
      "diesel": 158.9,
      "updated": "2026-03-12T14:07:01.299Z",
      "cached": false,
      "distance": 5.1
    },
    {
      "name": "ASDA RED ENSIGN EXPRESS PETROL",
      "brand": "BP",
      "address": "",
      "postcode": "CH1 6JS",
      "lat": 53.232995,
      "lng": -2.942376,
      "unleaded": 149.9,
      "diesel": 171.9,
      "updated": "2026-03-12T14:13:02.796Z",
      "cached": false,
      "distance": 4.0
    },
    {
      "name": "COSTCO WHOLESALE CHESTER",
      "brand": "COSTCO WHOLESALE",
      "address": "",
      "postcode": "CH1 6LT",
      "lat": 53.24496,
      "lng": -2.93034,
      "unleaded": 132.9,
      "diesel": 150.9,
      "updated": "2026-03-11T18:00:39.665Z",
      "cached": false,
      "distance": 4.8
    },
    {
      "name": "ASDA HANDBRIDGE EXPRESS PETROL",
      "brand": "ASDA EXPRESS",
      "address": "",
      "postcode": "CH4 7JF",
      "lat": 53.183942,
      "lng": -2.887504,
      "unleaded": 141.9,
      "diesel": 159.9,
      "updated": "2026-03-12T12:49:56.416Z",
      "cached": false,
      "distance": 5.9
    },
    {
      "name": "EG MOSTON PFS",
      "brand": "EG ON THE MOVE",
      "address": "",
      "postcode": "CH2 4BA",
      "lat": 53.226651,
      "lng": -2.894146,
      "unleaded": null,
      "diesel": null,
      "updated": null,
      "cached": false,
      "distance": 5.7
    },
    {
      "name": "Gordale Service Station",
      "brand": "Gordale Service Station",
      "address": "",
      "postcode": "CH64 8TF",
      "lat": 53.2741984,
      "lng": -3.0014083,
      "unleaded": 137.9,
      "diesel": 145.9,
      "updated": "3/9/2026",
      "cached": true,
      "distance": 4.9
    },
    {
      "name": "SPITAL SF CONNECT",
      "brand": "BP",
      "address": "",
      "postcode": "CH63 3EL",
      "lat": 53.34132,
      "lng": -3.00749,
      "unleaded": 138.9,
      "diesel": 158.9,
      "updated": "2026-03-12T12:37:06.346Z",
      "cached": false,
      "distance": 9.5
    },
    {
      "name": "RONTEC BEBINGTON",
      "brand": "BP",
      "address": "",
      "postcode": "CH63 7RD",
      "lat": 53.34781,
      "lng": -2.99834,
      "unleaded": 137.9,
      "diesel": 159.9,
      "updated": "2026-03-12T11:02:14.847Z",
      "cached": false,
      "distance": 9.9
    },
    {
      "name": "ASDA ARROWE PARK SUPERSTORE",
      "brand": "ASDA",
      "address": "",
      "postcode": "CH49 5PD",
      "lat": 53.3700696,
      "lng": -3.0784032,
      "unleaded": 135.9,
      "diesel": 155.9,
      "updated": "2026-03-11T16:56:31.019Z",
      "cached": false,
      "distance": 11.6
    },
    {
      "name": "ASDA LAIRDS EXPRESS PETROL",
      "brand": "ESSO",
      "address": "",
      "postcode": "CH41 9BW",
      "lat": 53.379868,
      "lng": -3.01265,
      "unleaded": 141.9,
      "diesel": 158.9,
      "updated": "2026-03-12T14:07:45.102Z",
      "cached": false,
      "distance": 12.1
    },
    {
      "name": "ASDA GREENLANE EXPRESS PETROL",
      "brand": "ESSO",
      "address": "",
      "postcode": "CH41 9AZ",
      "lat": 53.384,
      "lng": -3.015,
      "unleaded": 141.9,
      "diesel": 158.9,
      "updated": "2026-03-11T14:05:53.781Z",
      "cached": false,
      "distance": 12.4
    },
    {
      "name": "ASDA ELLESMERE PORT EXPRESS PETROL",
      "brand": "ESSO",
      "address": "",
      "postcode": "CH65 6TF",
      "lat": 53.278,
      "lng": -2.904,
      "unleaded": 141.9,
      "diesel": 158.9,
      "updated": "2026-03-11T17:54:39.061Z",
      "cached": false,
      "distance": 7.1
    },
    {
      "name": "Ellesmere Port Service Station",
      "brand": "Ellesmere Port Service Station",
      "address": "",
      "postcode": "CH65 3AA",
      "lat": 53.2898073,
      "lng": -2.9077945,
      "unleaded": 139.9,
      "diesel": 155.9,
      "updated": "2026-03-09T12:44:44.325Z",
      "cached": false,
      "distance": 7.6
    },
    {
      "name": "ASDA BROMBOROUGH SUPERSTORE",
      "brand": "ASDA",
      "address": "",
      "postcode": "CH62 3QP",
      "lat": 53.3406587,
      "lng": -2.9764509,
      "unleaded": 135.9,
      "diesel": 155.7,
      "updated": "2026-03-12T13:53:17.592Z",
      "cached": false,
      "distance": 9.6
    },
    {
      "name": "EG SPEKE PFS",
      "brand": "EG ON THE MOVE",
      "address": "",
      "postcode": "L24 9HZ",
      "lat": 53.349059,
      "lng": -2.861843,
      "unleaded": 138.7,
      "diesel": 157.7,
      "updated": "2026-03-11T16:37:33.782Z",
      "cached": false,
      "distance": 12.1
    },
    {
      "name": "ASDA AIGBURTH ROAD EXPRESS PETROL",
      "brand": "ESSO",
      "address": "",
      "postcode": "L17 4JP",
      "lat": 53.380525,
      "lng": -2.952403,
      "unleaded": 141.9,
      "diesel": 158.9,
      "updated": "2026-03-12T14:25:18.771Z",
      "cached": false,
      "distance": 12.5
    },
    {
      "name": "ASDA SEFTON PARK SUPERSTORE",
      "brand": "ASDA",
      "address": "",
      "postcode": "L15 3JR",
      "lat": 53.3941578,
      "lng": -2.9370567,
      "unleaded": 136.9,
      "diesel": 155.9,
      "updated": "2026-03-12T13:47:57.001Z",
      "cached": false,
      "distance": 13.6
    },
    {
      "name": "ASDA HUNTS CROSS SUPERSTORE",
      "brand": "ASDA",
      "address": "",
      "postcode": "L24 9WA",
      "lat": 53.3582927,
      "lng": -2.865599,
      "unleaded": 137.9,
      "diesel": 155.9,
      "updated": "2026-03-11T17:01:00.539Z",
      "cached": false,
      "distance": 12.5
    },
    {
      "name": "ASDA GOWY EXPRESS PETROL",
      "brand": "ESSO",
      "address": "",
      "postcode": "CH3 7HN",
      "lat": 53.2,
      "lng": -2.802,
      "unleaded": 144.9,
      "diesel": 161.9,
      "updated": "2026-03-12T14:06:37.689Z",
      "cached": false,
      "distance": 9.3
    },
    {
      "name": "EG BEACON 62 PFS",
      "brand": "SHELL",
      "address": "",
      "postcode": "L35 1QT",
      "lat": 53.39862,
      "lng": -2.81146,
      "unleaded": null,
      "diesel": null,
      "updated": null,
      "cached": false,
      "distance": 16.1
    },
    {
      "name": "HILLCREST MOTOR CO LTD",
      "brand": "GULF",
      "address": "",
      "postcode": "CH8 7SJ",
      "lat": 53.26136,
      "lng": -3.20879,
      "unleaded": 141.9,
      "diesel": 159.9,
      "updated": "2026-03-11T09:53:21.523Z",
      "cached": false,
      "distance": 8.5
    },
    {
      "name": "SHELL HAPSFORD MWSA",
      "brand": "SHELL",
      "address": "",
      "postcode": "CH2 4QZ",
      "lat": 53.268277,
      "lng": -2.801322,
      "unleaded": 161.9,
      "diesel": 179.9,
      "updated": "2026-03-12T14:37:50.244Z",
      "cached": false,
      "distance": 10.3
    },
    {
      "name": "SHELL LITTLE WAITROSE HINDERTON",
      "brand": "SHELL",
      "address": "",
      "postcode": "CH64 7TA",
      "lat": 53.294253,
      "lng": -3.042575,
      "unleaded": 141.9,
      "diesel": 161.9,
      "updated": "2026-03-12T15:50:41.103Z",
      "cached": false,
      "distance": 6.2
    },
    {
      "name": "SHELL CO-OP MOLD",
      "brand": "SHELL",
      "address": "",
      "postcode": "CH7 6LQ",
      "lat": 53.181156,
      "lng": -3.111588,
      "unleaded": 147.9,
      "diesel": 166.9,
      "updated": "2026-03-12T12:33:15.762Z",
      "cached": false,
      "distance": 3.9
    },
    {
      "name": "BR Flint",
      "brand": "Spar",
      "address": "",
      "postcode": "CH6 5DZ",
      "lat": 53.2443473,
      "lng": -3.1222575,
      "unleaded": 141.9,
      "diesel": 165.9,
      "updated": "2026-03-10T11:27:09.898Z",
      "cached": false,
      "distance": 4.8
    },
    {
      "name": "Esso - Saltney Service Station",
      "brand": "Saltney Service Station",
      "address": "",
      "postcode": "CH4 8SJ",
      "lat": 53.178903,
      "lng": -2.922518,
      "unleaded": 136.9,
      "diesel": 159.9,
      "updated": "2026-03-09T11:40:18.467Z",
      "cached": false,
      "distance": 4.7
    },
    {
      "name": "LIVERPOOL ALLERTON RD SUPERSTORE - PETROL FILLING STATION",
      "brand": "TESCO",
      "address": "",
      "postcode": "L18 6HF",
      "lat": 53.38121,
      "lng": -2.90916,
      "unleaded": 136.9,
      "diesel": 154.9,
      "updated": "2026-03-12T14:35:11.445Z",
      "cached": false,
      "distance": 13.1
    },
    {
      "name": "Esso - Queensferry Service Station",
      "brand": "Queensferry Service Station",
      "address": "",
      "postcode": "CH5 1QD",
      "lat": 53.2088991,
      "lng": -3.0326318,
      "unleaded": 136.9,
      "diesel": 159.9,
      "updated": "2026-03-09T13:45:35.066Z",
      "cached": false,
      "distance": 0.4
    },
    {
      "name": "SHELL HUNTS CROSS",
      "brand": "SHELL",
      "address": "",
      "postcode": "L25 0NS",
      "lat": 53.359789,
      "lng": -2.854618,
      "unleaded": 140.9,
      "diesel": 159.9,
      "updated": "2026-03-12T15:10:03.154Z",
      "cached": false,
      "distance": 12.8
    },
    {
      "name": "MFG COLESHILL",
      "brand": "SHELL",
      "address": "",
      "postcode": "CH6 5RR",
      "lat": 53.253768,
      "lng": -3.14176,
      "unleaded": 141.9,
      "diesel": 165.9,
      "updated": "2026-03-12T13:42:50.506Z",
      "cached": false,
      "distance": 5.8
    },
    {
      "name": "SMITHY VIEW SERVICE STATION ACTON",
      "brand": "SMITHY VIEW SERVICE STATION ACTON",
      "address": "",
      "postcode": "LL12 8DY",
      "lat": 53.0687749,
      "lng": -2.9908063,
      "unleaded": 139.7,
      "diesel": 159.7,
      "updated": "2026-03-12T15:57:50.301Z",
      "cached": false,
      "distance": 9.5
    },
    {
      "name": "MOLD SUPERSTORE - PETROL FILLING STATION",
      "brand": "TESCO",
      "address": "",
      "postcode": "CH7 1UB",
      "lat": 53.16708,
      "lng": -3.13754,
      "unleaded": 141.9,
      "diesel": 158.9,
      "updated": "2026-03-11T18:18:47.679Z",
      "cached": false,
      "distance": 5.3
    },
    {
      "name": "MFG HALEWOOD",
      "brand": "ESSO",
      "address": "",
      "postcode": "L26 1UN",
      "lat": 53.357973,
      "lng": -2.834598,
      "unleaded": 137.9,
      "diesel": 155.9,
      "updated": "2026-03-12T14:38:02.942Z",
      "cached": false,
      "distance": 13.2
    },
    {
      "name": "SHELL GAYTON",
      "brand": "SHELL",
      "address": "",
      "postcode": "CH60 3RY",
      "lat": 53.322022,
      "lng": -3.084409,
      "unleaded": 143.9,
      "diesel": 161.9,
      "updated": "2026-03-12T13:01:12.408Z",
      "cached": false,
      "distance": 8.4
    },
    {
      "name": "BROUGHTON CHESTER EXTRA - PETROL FILLING STATION",
      "brand": "TESCO",
      "address": "",
      "postcode": "CH4 0DP",
      "lat": 53.16935,
      "lng": -2.9739,
      "unleaded": 138.9,
      "diesel": 156.9,
      "updated": "2026-03-11T18:11:34.611Z",
      "cached": false,
      "distance": 3.3
    },
    {
      "name": "Rhydymwyn Service Station",
      "brand": "Rhydymwyn Service Station",
      "address": "",
      "postcode": "CH7 5HE",
      "lat": 53.1928694,
      "lng": -3.1889389,
      "unleaded": 137.9,
      "diesel": 159.9,
      "updated": "2026-03-11T13:44:25.138Z",
      "cached": false,
      "distance": 6.8
    },
    {
      "name": "BP HARVEST ENERGY HOYLAKE",
      "brand": "BP HARVEST ENERGY",
      "address": "",
      "postcode": "CH46 5NA",
      "lat": 53.3961782,
      "lng": -3.1318942,
      "unleaded": 141.9,
      "diesel": 158.9,
      "updated": "2026-03-11T13:22:23.640Z",
      "cached": false,
      "distance": 13.9
    },
    {
      "name": "SAINSBURYS BIRKENHEAD",
      "brand": "SAINSBURY'S",
      "address": "",
      "postcode": "CH42 8PQ",
      "lat": 53.37472,
      "lng": -3.04765,
      "unleaded": 137.9,
      "diesel": 155.9,
      "updated": "2026-03-11T21:44:47.569Z",
      "cached": false,
      "distance": 11.8
    },
    {
      "name": "SAINSBURYS KINGS ROAD BEBINGTON",
      "brand": "SAINSBURY'S",
      "address": "",
      "postcode": "CH63 8PZ",
      "lat": 53.35656,
      "lng": -3.02542,
      "unleaded": 136.9,
      "diesel": 155.9,
      "updated": "2026-03-11T22:56:10.318Z",
      "cached": false,
      "distance": 10.5
    },
    {
      "name": "SHELL UPTON",
      "brand": "SHELL",
      "address": "",
      "postcode": "CH49 0UE",
      "lat": 53.381566,
      "lng": -3.09902,
      "unleaded": 144.9,
      "diesel": 160.9,
      "updated": "2026-03-12T12:33:12.558Z",
      "cached": false,
      "distance": 12.6
    },
    {
      "name": "FOUR ACES FILLING STATION",
      "brand": "JET",
      "address": "",
      "postcode": "NE10 8YB",
      "lat": 53.1526091,
      "lng": -3.2031627,
      "unleaded": 139.9,
      "diesel": 159.9,
      "updated": "2026-03-10T02:50:52.198Z",
      "cached": false,
      "distance": 8.2
    },
    {
      "name": "TARBOCK WOODLANDS ESSO EXPRESS",
      "brand": "ESSO",
      "address": "",
      "postcode": "L35 1QY",
      "lat": 53.39817,
      "lng": -2.81805,
      "unleaded": 141.9,
      "diesel": 159.9,
      "updated": "2026-03-12T15:15:43.645Z",
      "cached": false,
      "distance": 15.9
    },
    {
      "name": "RUTHIN",
      "brand": "TEXACO",
      "address": "",
      "postcode": "LL151NB",
      "lat": 53.1134,
      "lng": -3.31576,
      "unleaded": 139.9,
      "diesel": 164.9,
      "updated": "2026-03-12T11:28:36.112Z",
      "cached": false,
      "distance": 13.6
    },
    {
      "name": "MFG MORRISONS ELLESMERE PORT",
      "brand": "MORRISONS",
      "address": "",
      "postcode": "CH65 6RU",
      "lat": 53.273606,
      "lng": -2.910218,
      "unleaded": 136.9,
      "diesel": 155.9,
      "updated": "2026-03-12T12:58:09.815Z",
      "cached": false,
      "distance": 6.8
    },
    {
      "name": "SHELL WIRRAL WAY",
      "brand": "SHELL",
      "address": "",
      "postcode": "CH42 0HA",
      "lat": 53.384042,
      "lng": -3.032912,
      "unleaded": 144.9,
      "diesel": 161.9,
      "updated": "2026-03-12T12:33:12.761Z",
      "cached": false,
      "distance": 12.4
    },
    {
      "name": "SHELL HOOLE ROAD",
      "brand": "SHELL",
      "address": "",
      "postcode": "CH2 3NH",
      "lat": 53.199234,
      "lng": -2.878935,
      "unleaded": 144.9,
      "diesel": 162.9,
      "updated": "2026-03-12T12:44:50.838Z",
      "cached": false,
      "distance": 6.1
    },
    {
      "name": "HELMINGTON ROW FILLING STATION",
      "brand": "ESSO",
      "address": "",
      "postcode": "DL15 0RW",
      "lat": 53.3463137,
      "lng": -3.0946933,
      "unleaded": 137.9,
      "diesel": 157.9,
      "updated": "2026-03-12T14:38:21.171Z",
      "cached": false,
      "distance": 10.2
    },
    {
      "name": "BP HARVEST ENERGY SPEKE",
      "brand": "BP HARVEST ENERGY",
      "address": "",
      "postcode": "L24 9HD",
      "lat": 53.3548148,
      "lng": -2.8647401,
      "unleaded": 135.9,
      "diesel": 161.9,
      "updated": "2026-03-09T14:34:22.640Z",
      "cached": false,
      "distance": 12.3
    },
    {
      "name": "SHELL MERSEY VIEW",
      "brand": "SHELL",
      "address": "",
      "postcode": "CH65 4AX",
      "lat": 53.284662,
      "lng": -2.89441,
      "unleaded": 143.9,
      "diesel": 162.9,
      "updated": "2026-03-12T13:19:21.900Z",
      "cached": false,
      "distance": 7.8
    },
    {
      "name": "IVANHOE SERVICE STATION",
      "brand": "BP",
      "address": "",
      "postcode": "DL2 1TD",
      "lat": 53.238044,
      "lng": -3.1376907,
      "unleaded": 142.9,
      "diesel": 163.9,
      "updated": "2026-03-12T10:13:21.207Z",
      "cached": false,
      "distance": 5.1
    },
    {
      "name": "Lobitos",
      "brand": "Esso",
      "address": "",
      "postcode": "CH8 9JS",
      "lat": 53.342343,
      "lng": -3.3371063,
      "unleaded": 153.9,
      "diesel": 159.9,
      "updated": "2026-03-11T07:15:15.548Z",
      "cached": false,
      "distance": 16.0
    },
    {
      "name": "SAINSBURYS WREXHAM",
      "brand": "SAINSBURY'S",
      "address": "",
      "postcode": "LL11 2BA",
      "lat": 53.05571,
      "lng": -3.00904,
      "unleaded": 138.9,
      "diesel": 153.9,
      "updated": "2026-03-11T22:03:19.722Z",
      "cached": false,
      "distance": 10.3
    },
    {
      "name": "BR Buckley",
      "brand": "Spar",
      "address": "",
      "postcode": "CH7 2NJ",
      "lat": 53.1685643,
      "lng": -3.0885872,
      "unleaded": 144.9,
      "diesel": 161.9,
      "updated": "2026-03-10T12:58:49.505Z",
      "cached": false,
      "distance": 3.6
    }
  ]
}