{
  "nationalAvg": {
    "unleaded": 131.7,
    "diesel": 141.5
  },
  "lastUpdated": "2026-02-25T11:00:00Z",
  "stations": [
    {
      "id": 13,
      "name": "Costco Chester",
      "brand": "COSTCO",
      "address": "Dunkirk Way, Chester Gates, CH1 6LT",
      "lat": 53.2449,
      "lng": -2.9303,
      "unleaded": 122.9,
      "diesel": 132.9,
      "updated": "2026-02-25T10:12:00",
      "distance": 5.4,
      "note": "Membership required"
    },
    {
      "id": 1,
      "name": "ASDA Queensferry",
      "brand": "ASDA",
      "address": "Aston Road, Queensferry, CH5 1TP",
      "lat": 53.2050,
      "lng": -3.0265,
      "unleaded": 131.7,
      "diesel": 139.7,
      "updated": "2026-02-25T09:15:00",
      "distance": 0.6
    },
    {
      "id": 2,
      "name": "Tesco Broughton Extra",
      "brand": "TESCO",
      "address": "Broughton Road, Broughton, CH4 0DR",
      "lat": 53.1679,
      "lng": -2.9760,
      "unleaded": 132.9,
      "diesel": 140.9,
      "updated": "2026-02-25T08:45:00",
      "distance": 3.2
    },
    {
      "id": 3,
      "name": "Texaco Dobshill Garage",
      "brand": "TEXACO",
      "address": "Chester Road, Dobshill, CH5 3LZ",
      "lat": 53.1634,
      "lng": -3.0396,
      "unleaded": 133.9,
      "diesel": 141.9,
      "updated": "2026-02-25T10:30:00",
      "distance": 1.8
    },
    {
      "id": 4,
      "name": "Esso Queensferry",
      "brand": "ESSO",
      "address": "Chester Road East, Queensferry, CH5 1TD",
      "lat": 53.2089,
      "lng": -3.0330,
      "unleaded": 134.9,
      "diesel": 142.9,
      "updated": "2026-02-25T07:20:00",
      "distance": 1.1
    },
    {
      "id": 5,
      "name": "Esso Connah's Quay",
      "brand": "ESSO",
      "address": "Church Street, Connah's Quay, CH5 4AS",
      "lat": 53.2237,
      "lng": -3.0693,
      "unleaded": 135.9,
      "diesel": 143.9,
      "updated": "2026-02-25T06:55:00",
      "distance": 0.8
    },
    {
      "id": 6,
      "name": "Newbridge Service Station",
      "brand": "DRAGON",
      "address": "Holywell Road, Ewloe, CH5 3BS",
      "lat": 53.1961,
      "lng": -3.0631,
      "unleaded": 137.9,
      "diesel": 145.9,
      "updated": "2026-02-25T11:00:00",
      "distance": 2.4
    },
    {
      "id": 7,
      "name": "Shell A55 Northop Hall (East)",
      "brand": "SHELL",
      "address": "A55 Expressway Eastbound, Northop Hall",
      "lat": 53.1930,
      "lng": -3.0818,
      "unleaded": 141.9,
      "diesel": 149.9,
      "updated": "2026-02-25T10:00:00",
      "distance": 5.1
    },
    {
      "id": 8,
      "name": "Shell A55 Northop Hall (West)",
      "brand": "SHELL",
      "address": "A55 Expressway Westbound, Northop Hall",
      "lat": 53.1927,
      "lng": -3.0822,
      "unleaded": 141.9,
      "diesel": 149.9,
      "updated": "2026-02-25T10:05:00",
      "distance": 5.2
    },
    {
      "id": 9,
      "name": "JET Buckley",
      "brand": "JET",
      "address": "72 Mold Road, Buckley, CH7 2NJ",
      "lat": 53.1685,
      "lng": -3.0886,
      "unleaded": 134.9,
      "diesel": 142.9,
      "updated": "2026-02-25T09:40:00",
      "distance": 3.8
    },
    {
      "id": 10,
      "name": "Texaco Buckley",
      "brand": "TEXACO",
      "address": "Liverpool Road, Buckley, CH7 3LN",
      "lat": 53.1830,
      "lng": -3.0720,
      "unleaded": 136.9,
      "diesel": 144.9,
      "updated": "2026-02-25T08:10:00",
      "distance": 4.1
    },
    {
      "id": 11,
      "name": "Tesco Mold",
      "brand": "TESCO",
      "address": "Ponterwyl, Mold, CH7 1UB",
      "lat": 53.1681,
      "lng": -3.1374,
      "unleaded": 132.9,
      "diesel": 140.9,
      "updated": "2026-02-25T09:50:00",
      "distance": 7.2
    },
    {
      "id": 12,
      "name": "Rhydymwyn Service Station",
      "brand": "INDEPENDENT",
      "address": "Denbigh Road, Rhydymwyn, CH7 5HE",
      "lat": 53.1928,
      "lng": -3.1888,
      "unleaded": 133.9,
      "diesel": 141.9,
      "updated": "2026-02-25T07:30:00",
      "distance": 9.6
    },
    {
      "id": 14,
      "name": "Morrisons Saltney",
      "brand": "MORRISONS",
      "address": "High Street, Saltney, CH4 8RU",
      "lat": 53.1775,
      "lng": -2.9341,
      "unleaded": 131.9,
      "diesel": 141.9,
      "updated": "2026-02-25T09:30:00",
      "distance": 4.6
    },
    {
      "id": 15,
      "name": "Morrisons Chester",
      "brand": "MORRISONS",
      "address": "Mill Lane, Chester, CH2 1AU",
      "lat": 53.2080,
      "lng": -2.8939,
      "unleaded": 129.7,
      "diesel": 138.7,
      "updated": "2026-02-25T08:20:00",
      "distance": 7.8
    },
    {
      "id": 16,
      "name": "Sainsbury's Chester",
      "brand": "SAINSBURYS",
      "address": "Caldy Valley Road, Chester, CH3 5QJ",
      "lat": 53.1848,
      "lng": -2.8554,
      "unleaded": 132.9,
      "diesel": 142.9,
      "updated": "2026-02-25T10:45:00",
      "distance": 9.2
    },
    {
      "id": 17,
      "name": "Shell Halkyn Road (Holywell)",
      "brand": "SHELL",
      "address": "Halkyn Road, Stamford Gate, CH8 7SG",
      "lat": 53.2656,
      "lng": -3.2156,
      "unleaded": 143.9,
      "diesel": 151.9,
      "updated": "2026-02-25T09:55:00",
      "distance": 11.2
    },
    {
      "id": 19,
      "name": "Texaco Holywell",
      "brand": "TEXACO",
      "address": "Holway Road, Holywell, CH8 7LQ",
      "lat": 53.2797,
      "lng": -3.2414,
      "unleaded": 139.9,
      "diesel": 147.9,
      "updated": "2026-02-25T07:15:00",
      "distance": 10.8
    }
  ]
}
